,City,Country,Latitude,Longitude,Continent,Subregion
0,A Coruña,Spain,43.3709703,-8.3959425,Europe,Southern Europe
1,Aachen,Germany,50.776351,6.083862,Europe,Western Europe
2,Aalborg,Denmark,57.0462626,9.9215263,Europe,Northern Europe
3,Aba,Nigeria,5.1128008,7.3651376,Africa,Western Africa
4,Abadan,Iran,30.3636097,48.2591475,Asia,Southern Asia
5,Abakaliki,Nigeria,6.3208897,8.1133202,Africa,Western Africa
6,Abakan,Russia,53.72068,91.4406019,Europe,Eastern Europe
7,Abbotsford,Canada,49.0521162,-122.329479,Americas,Northern America
8,Abengourou,Côte D'Ivoire,6.667663,-3.5107449,Africa,Western Africa
9,Abeokuta,Nigeria,7.1547129,3.3467344,Africa,Western Africa
10,Aberdeen,United Kingdom,57.1482429,-2.0928095,Europe,Northern Europe
11,Abha,Saudi Arabia,18.2164282,42.5043596,Asia,Western Asia
12,Abidjan,Côte D'Ivoire,5.320357,-4.016107,Africa,Western Africa
13,Abiko,Japan,35.863999,140.0280653,Asia,Eastern Asia
14,Abilene,United States,32.44645,-99.7475905,Americas,Northern America
15,Abohar,India,30.1450543,74.1956597,Asia,Southern Asia
16,Abomey Calavi,Benin,6.5109623,2.3303076,Africa,Western Africa
17,Abu Dhabi,United Arab Emirates,24.4538352,54.3774014,Asia,Western Asia
18,Abuja,Nigeria,9.0643305,7.4892974,Africa,Western Africa
19,Acapulco,Mexico,16.8680495,-99.8940182,Americas,Central America
20,Acarigua,Venezuela,9.5507961,-69.2032823,Americas,South America
21,Accra,Ghana,5.5571096,-0.2012376,Africa,Western Africa
22,Achalpur,India,21.2407925,77.427797,Asia,Southern Asia
23,Acheng,China,45.5362499,126.9694447,Asia,Eastern Asia
24,Achinsk,Russia,56.2694846,90.4953964,Europe,Eastern Europe
25,Acuña,Mexico,29.3248796,-100.9322287,Americas,Central America
26,Adana,Turkey,36.9863599,35.3252861,Asia,Western Asia
27,Addis Abeba,Ethiopia,9.0358287,38.7524127,Africa,Eastern Africa
28,Adelaide,Australia,-34.9281805,138.5999312,Oceania,Australia and New Zealand
29,Aden,Yemen,12.833333,44.916667,Asia,Western Asia
30,Adilabad,India,19.6759452,78.5339895,Asia,Southern Asia
31,Adiwerna,Indonesia,-6.9375,109.1325,Asia,South-Eastern Asia
32,Adoni,India,15.6559189,77.2697737,Asia,Southern Asia
33,Afyonkarahisar,Turkey,38.6852729,30.6427411,Asia,Western Asia
34,Agadir,Morocco,30.4205162,-9.5838532,Africa,Northern Africa
35,Agartala,India,23.8312377,91.2823821,Asia,Southern Asia
36,Agboville,Côte D'Ivoire,5.931283,-4.2106525,Africa,Western Africa
37,Ageo,Japan,35.9774082,139.5930504,Asia,Eastern Asia
38,Agra,India,27.1752554,78.0098161,Asia,Southern Asia
39,Aguascalientes,Mexico,22.0000001,-102.5000001,Americas,Central America
40,Ahmadabad,India,23.0216238,72.5797068,Asia,Southern Asia
41,Ahmadnagar,India,19.074352,74.7219979,Asia,Southern Asia
42,Ahmadpur East,Pakistan,29.2800515,71.1599395,Asia,Southern Asia
43,Ahvaz,Iran,31.3230637,48.67932,Asia,Southern Asia
44,Aix En Provence,France,43.5298424,5.4474738,Europe,Western Europe
45,Aizawl,India,23.7435236,92.7382905,Asia,Southern Asia
46,Ajdabiya,Libya,30.7550035,20.2233257,Africa,Northern Africa
47,Ajmer,India,26.4691,74.639,Asia,Southern Asia
48,Akashi,Japan,34.6832635,134.9476925,Asia,Eastern Asia
49,Akishima,Japan,35.70248,139.350065,Asia,Eastern Asia
50,Akita,Japan,39.6898802,140.342608,Asia,Eastern Asia
51,Akola,India,20.7618122,77.1921157,Asia,Southern Asia
52,Akron,United States,41.083064,-81.518485,Americas,Northern America
53,Aksaray,Turkey,38.4326291,33.8976963,Asia,Western Asia
54,Aksu,China,41.1677575,80.2582136,Asia,Eastern Asia
55,Aktau,Kazakhstan,43.6353364,51.168222,Asia,Central Asia
56,Akure,Nigeria,7.2525595,5.1932647,Africa,Western Africa
57,Akyab,Burma,20.15,92.9,Asia,South-Eastern Asia
58,Alagoinhas,Brazil,-12.133526,-38.420772,Americas,South America
59,Alandur,India,13.0028216,80.1719186,Asia,Southern Asia
60,Alanya,Turkey,36.5436517,32.0019211,Asia,Western Asia
61,Alappuzha,India,9.4980001,76.333482,Asia,Southern Asia
62,Albacete,Spain,38.9950921,-1.8559154,Europe,Southern Europe
63,Alberton,South Africa,-26.2529561,28.1270777,Africa,Southern Africa
64,Albuquerque,United States,35.0841034,-106.650985,Americas,Northern America
65,Albury,Australia,-36.0737134,146.9135326,Oceania,Australia and New Zealand
66,Alcalá De Henares,Spain,40.4818396,-3.3644973,Europe,Southern Europe
67,Alcobendas,Spain,40.5400082,-3.6358494,Europe,Southern Europe
68,Alcorcón,Spain,40.3492998,-3.8284295,Europe,Southern Europe
69,Aleppo,Syria,36.19924,37.1637253,Asia,Western Asia
70,Alexandria,Egypt,31.1991806,29.8951716,Africa,Northern Africa
71,Algeciras,Spain,36.1311725,-5.4473991,Europe,Southern Europe
72,Algiers,Algeria,36.7753606,3.0601882,Africa,Northern Africa
73,Aligarh,India,27.833333,78.166667,Asia,Southern Asia
74,Allahabad,India,25.4381302,81.8338005,Asia,Southern Asia
75,Allentown,United States,40.6022059,-75.4712794,Americas,Northern America
76,Almaty,Kazakhstan,43.2363924,76.9457275,Asia,Central Asia
77,Almere,Netherlands,52.3705038,5.2185859,Europe,Western Europe
78,Almería,Spain,36.8414197,-2.4628135,Europe,Southern Europe
79,Almetyevsk,Russia,54.9005008,52.2963777,Europe,Eastern Europe
80,Alor Setar,Malaysia,6.1231908,100.3683962,Asia,South-Eastern Asia
81,Altay,China,47.1001782,88.4341751,Asia,Eastern Asia
82,Alwar,India,27.5,76.5,Asia,Southern Asia
83,Amadora,Portugal,38.758959,-9.2365233,Europe,Southern Europe
84,Amagasaki,Japan,34.7288995,135.412989,Asia,Eastern Asia
85,Amaigbo,Nigeria,5.7291619,7.1164592,Africa,Western Africa
86,Amarillo,United States,35.2072185,-101.833824,Americas,Northern America
87,Ambala,India,30.3843674,76.770421,Asia,Southern Asia
88,Ambarnath,India,19.1435568,73.2970409,Asia,Southern Asia
89,Ambato,Ecuador,-1.2422413,-78.6287594,Americas,South America
90,Ambattur,India,13.1128863,80.1598624,Asia,Southern Asia
91,Ambon,Indonesia,-3.6959434,128.178785,Asia,South-Eastern Asia
92,Ambur,India,12.7929067,78.6999168,Asia,Southern Asia
93,Americana,Brazil,-22.7392463,-47.3306032,Americas,South America
94,Amersfoort,Netherlands,52.1562499,5.3896944,Europe,Western Europe
95,Amiens,France,49.8941708,2.2956951,Europe,Western Europe
96,Amol,Iran,36.4718947,52.3499009,Asia,Southern Asia
97,Amravati,India,21.1545412,77.6442962,Asia,Southern Asia
98,Amritsar,India,31.6343083,74.8736788,Asia,Southern Asia
99,Amroha,India,28.9675713,78.5397003,Asia,Southern Asia
100,Amsterdam,Netherlands,52.3730796,4.8924534,Europe,Western Europe
101,Anaco,Venezuela,9.432191,-64.466834,Americas,South America
102,Anaheim,United States,33.8347516,-117.911732,Americas,Northern America
103,Anand,India,22.5586555,72.9627227,Asia,Southern Asia
104,Ananindeua,Brazil,-1.374035,-48.4016623,Americas,South America
105,Anantapur,India,14.6546235,77.5562598,Asia,Southern Asia
106,Anbu,China,23.4522811,116.6778807,Asia,Eastern Asia
107,Anchorage,United States,61.2163129,-149.894852,Americas,Northern America
108,Ancona,Italy,43.4801204,13.2187906,Europe,Southern Europe
109,Anda,China,46.4114331,125.3285572,Asia,Eastern Asia
110,Andijon,Uzbekistan,40.7833471,72.3506746,Asia,Central Asia
111,Angarsk,Russia,52.5311117,103.8826109,Europe,Eastern Europe
112,Angeles,Philippines,15.1389351,120.5875321,Asia,South-Eastern Asia
113,Angers,France,47.4739884,-0.5515588,Europe,Western Europe
114,Angra Dos Reis,Brazil,-23.0063966,-44.316326,Americas,South America
115,Angren,Uzbekistan,41.0212207,70.0795361,Asia,Central Asia
116,Anjo,Japan,34.947764,137.075563,Asia,Eastern Asia
117,Ankang,China,32.7165184,108.9912989,Asia,Eastern Asia
118,Ankara,Turkey,39.9207759,32.8540497,Asia,Western Asia
119,Ann Arbor,United States,42.2681569,-83.7312291,Americas,Northern America
120,Anqing,China,30.6592336,116.6302585,Asia,Eastern Asia
121,Anqiu,China,36.4794705,119.2129818,Asia,Eastern Asia
122,Anshan,China,41.1075962,122.9902291,Asia,Eastern Asia
123,Anshun,China,26.254911,105.9437773,Asia,Eastern Asia
124,Antakya,Turkey,36.2036546,36.1637648,Asia,Western Asia
125,Antalya,Turkey,36.8864752,30.7029585,Asia,Western Asia
126,Antananarivo,Madagascar,-18.7791487,46.7121716,Africa,Eastern Africa
127,Antioch,United States,38.0049214,-121.805789,Americas,Northern America
128,Antipolo,Philippines,14.5871972,121.1759246,Asia,South-Eastern Asia
129,Antofagasta,Chile,-23.6463741,-70.3980033,Americas,South America
130,Antsirabe,Madagascar,-19.871403,47.034667,Africa,Eastern Africa
131,Antwerp,Belgium,51.2211097,4.3997081,Europe,Western Europe
132,Anyama,Côte D'Ivoire,5.4958898,-4.056921,Africa,Western Africa
133,Anyang,China,36.1023552,114.33633,Asia,Eastern Asia
134,Anápolis,Brazil,-16.3332828,-48.9525756,Americas,South America
135,Apeldoorn,Netherlands,52.1795738,5.9300775,Europe,Western Europe
136,Apodaca,Mexico,25.7816542,-100.1887501,Americas,Central America
137,Apopa,El Salvador,13.8013036,-89.1790784,Americas,Central America
138,Apucarana,Brazil,-23.5525327,-51.4610764,Americas,South America
139,Aqtöbe,Kazakhstan,50.2836268,57.2298651,Asia,Central Asia
140,Ara,India,25.560317,84.6632139,Asia,Southern Asia
141,Aracaju,Brazil,-10.9162061,-37.0774655,Americas,South America
142,Arad,Romania,46.1753793,21.3196342,Europe,Eastern Europe
143,Araguaína,Brazil,-7.193241,-48.2018597,Americas,South America
144,Arak,Iran,34.0862719,49.6893884,Asia,Southern Asia
145,Arapiraca,Brazil,-9.754866,-36.661471,Americas,South America
146,Araraquara,Brazil,-21.7886713,-48.1773096,Americas,South America
147,Araras,Brazil,-22.3569477,-47.3838889,Americas,South America
148,Araruama,Brazil,-22.8733203,-42.3428897,Americas,South America
149,Araucária,Brazil,-25.5861107,-49.4051209,Americas,South America
150,Araçatuba,Brazil,-21.207992,-50.4390225,Americas,South America
151,Ardabil,Iran,38.4583983,47.9313001,Asia,Southern Asia
152,Arequipa,Peru,-16,-72.25,Americas,South America
153,Arica,Chile,-18.4785288,-70.3211394,Americas,South America
154,Arjawinangun,Indonesia,-6.6446593,108.4145317,Asia,South-Eastern Asia
155,Arkhangelsk,Russia,64.543022,40.537121,Europe,Eastern Europe
156,Arlington,United States,32.7355816,-97.1071186,Americas,Northern America
157,Armavir,Russia,44.9993585,41.1294061,Europe,Eastern Europe
158,Armenia,Colombia,4.536307,-75.6723751,Americas,South America
159,Arnhem,Netherlands,51.984257,5.9108573,Europe,Western Europe
160,Arusha,Tanzania,-3.3696827,36.6880794,Africa,Eastern Africa
161,Arvada,United States,39.8005505,-105.0811573,Americas,Northern America
162,Aryanah,Tunisia,36.86012,10.19337,Africa,Northern Africa
163,Arzamas,Russia,55.3989463,43.8408129,Europe,Eastern Europe
164,Asahikawa,Japan,43.7627501,142.3579263,Asia,Eastern Asia
165,Asaka,Japan,35.7970861,139.593733,Asia,Eastern Asia
166,Asansol,India,23.6871297,86.9746587,Asia,Southern Asia
167,Asfi,Morocco,32.299424,-9.239533,Africa,Northern Africa
168,Asgabat,Turkmenistan,37.9404648,58.3823487,Asia,Central Asia
169,Ashdod,Israel,31.7977314,34.6529922,Asia,Western Asia
170,Ashikaga,Japan,36.3401914,139.4497731,Asia,Eastern Asia
171,Ashqelon,Israel,31.6644874,34.5730157,Asia,Western Asia
172,Asmara,Eritrea,15.3389667,38.9326763,Africa,Eastern Africa
173,Astana,Kazakhstan,51.1282205,71.4306682,Asia,Central Asia
174,Astanajapura,Indonesia,-6.7903546,108.6193921,Asia,South-Eastern Asia
175,Astrakhan,Russia,46.3498308,48.0326203,Europe,Eastern Europe
176,Asunción,Paraguay,-25.2800459,-57.6343814,Americas,South America
177,Aswan,Egypt,24.091071,32.897306,Africa,Northern Africa
178,Asyut,Egypt,27.1832822,31.1853836,Africa,Northern Africa
179,Athens,Greece,37.9755648,23.7348324,Europe,Southern Europe
180,Atibaia,Brazil,-23.1177393,-46.5547861,Americas,South America
181,Atlanta,United States,33.7489924,-84.3902644,Americas,Northern America
182,Atsugi,Japan,35.464797,139.323536,Asia,Eastern Asia
183,Atyrau,Kazakhstan,47.6605827,50.806203,Asia,Central Asia
184,Auckland,New Zealand,-36.852095,174.7631803,Oceania,Australia and New Zealand
185,Augsburg,Germany,48.3668041,10.8986971,Europe,Western Europe
186,Aurangabad,India,24.786306,84.4144898,Asia,Southern Asia
187,Aurora,United States,41.7571701,-88.3147539,Americas,Northern America
188,Austin,United States,30.2711286,-97.7436995,Americas,Northern America
189,Avadi,India,13.1194809,80.1026704,Asia,Southern Asia
190,Awassa,Ethiopia,7.0481029,38.47861,Africa,Eastern Africa
191,Awka,Nigeria,6.218947,7.0774372,Africa,Western Africa
192,Ayacucho,Peru,-14,-74,Americas,South America
193,Ayer Itam,Malaysia,5.4018648,100.2778327,Asia,South-Eastern Asia
194,Azamgarh,India,25.9903752,83.191152,Asia,Southern Asia
195,Azare,Nigeria,10.5261,12.291,Africa,Western Africa
196,Babakan,Indonesia,-6.9329907,107.5765974,Asia,South-Eastern Asia
197,Babol,Iran,36.5452581,52.6846571,Asia,Southern Asia
198,Bac Lieu,Vietnam,9.3298341,105.509946,Asia,South-Eastern Asia
199,Bacau,Romania,46.4228703,26.7163991,Europe,Eastern Europe
200,Bacolod,Philippines,10.6762836,122.9513786,Asia,South-Eastern Asia
201,Bacoor,Philippines,14.458816,120.959579,Asia,South-Eastern Asia
202,Badajoz,Spain,38.8896436,-6.9801425,Europe,Southern Europe
203,Badalona,Spain,41.4493539,2.248254,Europe,Southern Europe
204,Badaojiang,China,41.8200527,126.4233899,Asia,Eastern Asia
205,Badlapur,India,25.8959245,82.4377162,Asia,Southern Asia
206,Bafoussam,Cameroon,5.4758844,10.4217852,Africa,Middle Africa
207,Bagaha,India,27.0590111,84.2064638,Asia,Southern Asia
208,Baghdad,Iraq,33.3061701,44.3872213,Asia,Western Asia
209,Baglan,Afghanistan,35.75,69,Asia,Southern Asia
210,Bago,Burma,18.3278182,95.6423809,Asia,South-Eastern Asia
211,Baguio,Philippines,16.4119955,120.593371,Asia,South-Eastern Asia
212,Bahadurgarh,India,28.6609648,76.8346765,Asia,Southern Asia
213,Baharampur,India,24.1044927,88.2510635,Asia,Southern Asia
214,Bahawalnagar,Pakistan,29.9935922,73.2527621,Asia,Southern Asia
215,Bahawalpur,Pakistan,29.394644,71.6638747,Asia,Southern Asia
216,Bahia Blanca,Argentina,-38.7176522,-62.2654871,Americas,South America
217,Bahir Dar,Ethiopia,11.5949663,37.3882251,Africa,Eastern Africa
218,Bahraich,India,27.4981651,81.7954767,Asia,Southern Asia
219,Baia Mare,Romania,47.6565584,23.5719843,Europe,Eastern Europe
220,Baicheng,China,45.6156275,122.8360811,Asia,Eastern Asia
221,Baidyabati,India,22.7949104,88.3317725,Asia,Southern Asia
222,Baiyin,China,36.5451563,104.1355419,Asia,Eastern Asia
223,Bakersfield,United States,35.3738712,-119.0194639,Americas,Northern America
224,Baku,Azerbaijan,40.3755885,49.8328009,Asia,Western Asia
225,Balakovo,Russia,52.01812,47.819141,Europe,Eastern Europe
226,Balashikha,Russia,55.8036225,37.9646488,Europe,Eastern Europe
227,Baleshwar,India,21.4955907,86.9167623,Asia,Southern Asia
228,Balikpapan,Indonesia,-1.2398711,116.8593379,Asia,South-Eastern Asia
229,Baliuag,Philippines,14.9542259,120.9009172,Asia,South-Eastern Asia
230,Ballia,India,25.833333,84.166667,Asia,Southern Asia
231,Bally,India,22.6469581,88.343612,Asia,Southern Asia
232,Balti,Moldova,47.7623599,27.928665,Europe,Eastern Europe
233,Baltimore,United States,39.2908816,-76.610759,Americas,Northern America
234,Balurghat,India,25.2634866,88.7890029,Asia,Southern Asia
235,Bama,Nigeria,11.54544,14.0064277,Africa,Western Africa
236,Bamako,Mali,12.6132655,-7.9847391,Africa,Western Africa
237,Bamenda,Cameroon,5.9614117,10.1516505,Africa,Middle Africa
238,Banda,India,25.5008211,80.499762,Asia,Southern Asia
239,Banda Aceh,Indonesia,5.5528455,95.3192908,Asia,South-Eastern Asia
240,Bandar E Anzali,Iran,37.4716356,49.4685904,Asia,Southern Asia
241,Bandar Maharani,Malaysia,2.0425046,102.5658852,Asia,South-Eastern Asia
242,Bandar Penggaram,Malaysia,1.8472584,102.9346697,Asia,South-Eastern Asia
243,Bandundu,Congo (Democratic Republic Of The),-4,18,Africa,Middle Africa
244,Bandung,Indonesia,-6.9215529,107.6110212,Asia,South-Eastern Asia
245,Baneh,Iran,35.9946631,45.8843225,Asia,Southern Asia
246,Bangalore,India,12.9767936,77.590082,Asia,Southern Asia
247,Bangaon,India,23.0434655,88.8317765,Asia,Southern Asia
248,Bangkok,Thailand,13.7524938,100.4935089,Asia,South-Eastern Asia
249,Bangui,Central African Republic,4.3635118,18.5835913,Africa,Middle Africa
250,Banja Luka,Bosnia And Herzegovina,44.7720845,17.1917651,Europe,Southern Europe
251,Banjaran,Indonesia,-6.9132697,109.4151699,Asia,South-Eastern Asia
252,Banjarmasin,Indonesia,-3.3187496,114.5925828,Asia,South-Eastern Asia
253,Bankura,India,23.25,87.25,Asia,Southern Asia
254,Bansbaria,India,22.409066,88.172582,Asia,Southern Asia
255,Bantou,China,27.1429143,119.1102155,Asia,Eastern Asia
256,Banyuwangi,Indonesia,-8.3325711,114.141579,Asia,South-Eastern Asia
257,Baoding,China,38.8579735,115.490696,Asia,Eastern Asia
258,Baoji,China,34.3645811,107.2332184,Asia,Eastern Asia
259,Baoshan,China,25.1147115,99.1591622,Asia,Eastern Asia
260,Barakpur,India,22.76602,88.36336,Asia,Southern Asia
261,Baranagar,India,22.6493438,88.3685302,Asia,Southern Asia
262,Barasat,India,22.7191072,88.4826229,Asia,Southern Asia
263,Barbacena,Brazil,-21.2254524,-43.7735087,Americas,South America
264,Barcelona,Spain,41.3828939,2.1774322,Europe,Southern Europe
265,Barddhaman,India,23.25,87.75,Asia,Southern Asia
266,Bareli,India,28.416667,79.383333,Asia,Southern Asia
267,Bari,Italy,41.1257843,16.8620293,Europe,Southern Europe
268,Barinas,Venezuela,8.6182737,-70.2274065,Americas,South America
269,Baripada,India,21.9306273,86.732309,Asia,Southern Asia
270,Barisal,Bangladesh,22.7047521,90.370729,Asia,Southern Asia
271,Barnala,India,30.3762012,75.5435927,Asia,Southern Asia
272,Barnaul,Russia,53.3475493,83.7788448,Europe,Eastern Europe
273,Barquisimeto,Venezuela,10.0774374,-69.3222293,Americas,South America
274,Barra Mansa,Brazil,-22.5394843,-44.1735129,Americas,South America
275,Barrancabermeja,Colombia,7.0673313,-73.8525627,Americas,South America
276,Barranquilla,Colombia,10.9938698,-74.7927177,Americas,South America
277,Barreiras,Brazil,-12.1440031,-44.9967406,Americas,South America
278,Barretos,Brazil,-20.5531437,-48.5697509,Americas,South America
279,Barrie,Canada,44.3893208,-79.6901302,Americas,Northern America
280,Barsi,India,23.5837762,75.4169417,Asia,Southern Asia
281,Barueri,Brazil,-23.5112184,-46.8764612,Americas,South America
282,Baruta,Venezuela,10.4350067,-66.8734682,Americas,South America
283,Basel,Switzerland,47.5581077,7.5878261,Europe,Western Europe
284,Basildon,United Kingdom,51.5754602,0.4757363,Europe,Northern Europe
285,Basirhat,India,22.6611962,88.8660215,Asia,Southern Asia
286,Basti,India,26.724789,82.7932687,Asia,Southern Asia
287,Bat Yam,Israel,32.0154565,34.7505283,Asia,Western Asia
288,Bata,Equatorial Guinea,1.8238516,9.8561662,Africa,Middle Africa
289,Batala,India,31.8193025,75.1999941,Asia,Southern Asia
290,Batangas,Philippines,13.9146826,121.0867566,Asia,South-Eastern Asia
291,Bataysk,Russia,47.138527,39.742348,Europe,Eastern Europe
292,Batman,Turkey,37.7874104,41.2573924,Asia,Western Asia
293,Baton Rouge,United States,30.4494155,-91.1869659,Americas,Northern America
294,Baturaja,Indonesia,-4.1270552,104.1619482,Asia,South-Eastern Asia
295,Bauchi,Nigeria,10.6228284,10.0287754,Africa,Western Africa
296,Bauru,Brazil,-22.3218102,-49.0705863,Americas,South America
297,Bayamo,Cuba,20.3734356,-76.6492015,Americas,Caribbean
298,Bayrut,Lebanon,33.8892265,35.5025585,Asia,Western Asia
299,Beaumont,United States,30.0860459,-94.1018461,Americas,Northern America
300,Beawar,India,26.0992137,74.3127044,Asia,Southern Asia
301,Begusarai,India,25.4138614,86.1348858,Asia,Southern Asia
302,Beian,China,36.437208,120.4702696,Asia,Eastern Asia
303,Beibei,China,29.8669185,106.5229916,Asia,Eastern Asia
304,Beihai,China,21.4845174,109.1165772,Asia,Eastern Asia
305,Beipiao,China,41.8000713,120.7655332,Asia,Eastern Asia
306,Beira,Mozambique,-19.828707,34.841782,Africa,Eastern Africa
307,Beirut,Lebanon,33.8892265,35.5025585,Asia,Western Asia
308,Bekasi,Indonesia,-6.2349858,106.9945444,Asia,South-Eastern Asia
309,Belawan,Indonesia,-0.5791924,114.4500022,Asia,South-Eastern Asia
310,Belfast,United Kingdom,54.596391,-5.9301829,Europe,Northern Europe
311,Belford Roxo,Brazil,-22.7667284,-43.4033603,Americas,South America
312,Belgaum,India,15.8572666,74.5069343,Asia,Southern Asia
313,Belgorod,Russia,50.5955595,36.5873394,Europe,Eastern Europe
314,Belgrade,Serbia,44.8178131,20.4568974,Europe,Eastern Europe
315,Bellary,India,15.1433952,76.9193876,Asia,Southern Asia
316,Bellevue,United States,47.6144219,-122.192337,Americas,Northern America
317,Bello,Colombia,6.334997,-75.5582665,Americas,South America
318,Belo Horizonte,Brazil,-19.9225776,-43.9451356,Americas,South America
319,Belém,Brazil,-1.45056,-48.4682453,Americas,South America
320,Bene Beraq,Israel,32.08074,34.8338,Asia,Western Asia
321,Bengbu,China,32.9176422,117.3825673,Asia,Eastern Asia
322,Benghazi,Libya,32.1288331,20.0817204,Africa,Northern Africa
323,Bengkulu,Indonesia,-3.5186763,102.5359834,Asia,South-Eastern Asia
324,Benguela,Angola,-12.9104657,14.0356608,Africa,Middle Africa
325,Benha,Egypt,30.4624974,31.184063,Africa,Northern Africa
326,Beni Suef,Egypt,29.0729812,31.0982562,Africa,Northern Africa
327,Benoni,South Africa,-26.1930356,28.3082376,Africa,Southern Africa
328,Benxi,China,41.2921601,123.7593948,Asia,Eastern Asia
329,Beppu,Japan,33.2845752,131.4913063,Asia,Eastern Asia
330,Berbera,Somalia,10.4386215,45.0134007,Africa,Eastern Africa
331,Berezniki,Russia,59.4084171,56.8036958,Europe,Eastern Europe
332,Bergamo,Italy,45.7566557,9.7542192,Europe,Southern Europe
333,Bergen,Norway,60.3943055,5.3259192,Europe,Northern Europe
334,Bergisch Gladbach,Germany,50.9929303,7.1277379,Europe,Western Europe
335,Berkeley,United States,37.8708393,-122.272863,Americas,Northern America
336,Berlin,Germany,52.5170365,13.3888599,Europe,Western Europe
337,Bern,Switzerland,46.9484742,7.4521749,Europe,Western Europe
338,Bertoua,Cameroon,4.5776155,13.6843792,Africa,Middle Africa
339,Besançon,France,47.2380222,6.0243622,Europe,Western Europe
340,Bethal,South Africa,-26.4569444,29.4708333,Africa,Southern Africa
341,Betim,Brazil,-19.968056,-44.198333,Americas,South America
342,Bettiah,India,26.7910727,84.5601068,Asia,Southern Asia
343,Bhadravati,India,20.1673903,79.2301936,Asia,Southern Asia
344,Bhadreswar,India,20.5268033,86.2360615,Asia,Southern Asia
345,Bhagalpur,India,25.2494829,86.9828131,Asia,Southern Asia
346,Bhairab Bazar,Bangladesh,24.0502591,90.9781951,Asia,Southern Asia
347,Bharatpur,India,24.1937675,81.0656395,Asia,Southern Asia
348,Bharuch,India,21.75,73,Asia,Southern Asia
349,Bhatpara,India,22.8571157,88.3971976,Asia,Southern Asia
350,Bhavnagar,India,21.7718836,72.1416449,Asia,Southern Asia
351,Bhilai,India,21.2120677,81.3732849,Asia,Southern Asia
352,Bhilwara,India,25.5,74.75,Asia,Southern Asia
353,Bhimavaram,India,16.5427689,81.527344,Asia,Southern Asia
354,Bhind,India,26.5,78.75,Asia,Southern Asia
355,Bhiwandi,India,19.3625308,73.0804893,Asia,Southern Asia
356,Bhiwani,India,28.7931703,76.1391283,Asia,Southern Asia
357,Bhopal,India,23.2584857,77.401989,Asia,Southern Asia
358,Bhubaneswar,India,20.2602964,85.8394521,Asia,Southern Asia
359,Bhuj,India,23.2472446,69.668339,Asia,Southern Asia
360,Bhusawal,India,20.9946183,75.8396297,Asia,Southern Asia
361,Bialystok,Poland,53.127505,23.1470509,Europe,Eastern Europe
362,Bid,India,20.1478882,77.8803527,Asia,Southern Asia
363,Bida,Nigeria,9.083333,6.016667,Africa,Western Africa
364,Bidar,India,18.083333,77.333333,Asia,Southern Asia
365,Bielefeld,Germany,52.0191005,8.531007,Europe,Western Europe
366,Bielsko Biala,Poland,49.822118,19.0448936,Europe,Eastern Europe
367,Bihar,India,25.6440845,85.906508,Asia,Southern Asia
368,Bijapur,India,16.8269911,75.7175387,Asia,Southern Asia
369,Bikaner,India,28.0159286,73.3171367,Asia,Southern Asia
370,Bila Tserkva,Ukraine,49.7969703,30.1158069,Europe,Eastern Europe
371,Bilaspur,India,28.8680526,79.298385,Asia,Southern Asia
372,Bilbao,Spain,43.2630018,-2.9350039,Europe,Southern Europe
373,Binangonan,Philippines,14.465142,121.1921185,Asia,South-Eastern Asia
374,Binjai,Indonesia,3.6063964,98.4899865,Asia,South-Eastern Asia
375,Bintulu,Malaysia,3.1874261,113.0472803,Asia,South-Eastern Asia
376,Binzhou,China,37.3821206,117.9647262,Asia,Eastern Asia
377,Biratnagar,Nepal,26.4623007,87.281617,Asia,Southern Asia
378,Birganj,Nepal,27.0135196,84.8763804,Asia,Southern Asia
379,Birigui,Brazil,-21.2908491,-50.34144,Americas,South America
380,Birjand,Iran,32.8633961,59.2177294,Asia,Southern Asia
381,Birmingham,United Kingdom,52.4796992,-1.9026911,Europe,Northern Europe
382,Birnin Kebbi,Nigeria,12.4573462,4.2006114,Africa,Western Africa
383,Bisho,South Africa,-32.8494444,27.4463889,Africa,Southern Africa
384,Bissau,Guinea Bissau,11.861324,-15.583055,Africa,Western Africa
385,Bitung,Indonesia,1.44344,125.1940836,Asia,South-Eastern Asia
386,Biysk,Russia,52.5394905,85.2148673,Europe,Eastern Europe
387,Biên Hòa,Vietnam,10.9509538,106.8226134,Asia,South-Eastern Asia
388,Blackburn,United Kingdom,53.749326,-2.4840566,Europe,Northern Europe
389,Blackpool,United Kingdom,53.8179442,-3.0509812,Europe,Northern Europe
390,Blagoveshchensk,Russia,50.290527,127.527161,Europe,Eastern Europe
391,Blantyre,Malawi,-15.7862543,35.0035694,Africa,Eastern Africa
392,Blitar,Indonesia,-8.0982442,112.1650769,Asia,South-Eastern Asia
393,Bloemfontein,South Africa,-29.116395,26.215496,Africa,Southern Africa
394,Blumenau,Brazil,-26.9195567,-49.0658025,Americas,South America
395,Boa Vista,Brazil,2.8208478,-60.6719582,Americas,South America
396,Bobo Dioulasso,Burkina Faso,11.1765796,-4.2961436,Africa,Western Africa
397,Bochum,Germany,51.4818111,7.2196635,Europe,Western Europe
398,Bogor,Indonesia,-6.5962986,106.7972421,Asia,South-Eastern Asia
399,Bogotá,Colombia,4.6529539,-74.0835643,Americas,South America
400,Bohicon,Benin,7.1816331,2.0695683,Africa,Western Africa
401,Bojnurd,Iran,37.4759752,57.3319881,Asia,Southern Asia
402,Bokaro,India,23.6991279,85.9910689,Asia,Southern Asia
403,Boksburg,South Africa,-26.2124639,28.2617471,Africa,Southern Africa
404,Bologna,Italy,44.4938203,11.3426327,Europe,Southern Europe
405,Bolton,United Kingdom,53.5782863,-2.4300367,Europe,Northern Europe
406,Boma,Congo (Democratic Republic Of The),4.08979,25.90532,Africa,Middle Africa
407,Bombay,India,19.0815772,72.8866275,Asia,Southern Asia
408,Bonn,Germany,50.735851,7.10066,Europe,Western Europe
409,Bontang,Indonesia,0.1236548,117.471708,Asia,South-Eastern Asia
410,Bordeaux,France,44.841225,-0.5800364,Europe,Western Europe
411,Borujerd,Iran,33.8943281,48.7560936,Asia,Southern Asia
412,Boshan,China,36.494716,117.8567023,Asia,Eastern Asia
413,Boston,United States,42.3554334,-71.060511,Americas,Northern America
414,Botad,India,22.1686,71.6685,Asia,Southern Asia
415,Botosani,Romania,47.8528263,26.759334,Europe,Eastern Europe
416,Botshabelo,South Africa,-29.232412,26.733255,Africa,Southern Africa
417,Bottrop,Germany,51.521581,6.929204,Europe,Western Europe
418,Botucatu,Brazil,-22.8879628,-48.4410712,Americas,South America
419,Bouaké,Côte D'Ivoire,7.6906058,-5.0298408,Africa,Western Africa
420,Boulogne Billancourt,France,48.8356649,2.240206,Europe,Western Europe
421,Bournemouth,United Kingdom,50.7201514,-1.8799118,Europe,Northern Europe
422,Bozhou,China,33.8579594,115.772453,Asia,Eastern Asia
423,Bradford,United Kingdom,53.7944229,-1.7519186,Europe,Northern Europe
424,Braga,Portugal,41.5510583,-8.4280045,Europe,Southern Europe
425,Bragança Paulista,Brazil,-22.9520235,-46.5418586,Americas,South America
426,Brahmapur,India,19.2999041,84.8071371,Asia,Southern Asia
427,Braila,Romania,45.2716092,27.9742932,Europe,Eastern Europe
428,Brakpan,South Africa,-26.235278,28.37,Africa,Southern Africa
429,Brasov,Romania,45.6525105,25.6105654,Europe,Eastern Europe
430,Brasília,Brazil,-10.3333333,-53.2,Americas,South America
431,Bratislava,Slovakia,48.1516988,17.1093063,Europe,Eastern Europe
432,Bratsk,Russia,56.1517085,101.6334907,Europe,Eastern Europe
433,Brazzaville,Congo,-4.2694407,15.2712256,Africa,Middle Africa
434,Brebes,Indonesia,-7.0520711,108.888136,Asia,South-Eastern Asia
435,Breda,Netherlands,51.5887845,4.7760237,Europe,Western Europe
436,Bremen,Germany,53.0758196,8.8071646,Europe,Western Europe
437,Bremerhaven,Germany,53.5505392,8.5851945,Europe,Western Europe
438,Brescia,Italy,45.7795804,10.425873,Europe,Southern Europe
439,Brest,Belarus,52.093751,23.6851851,Europe,Eastern Europe
440,Bridgeport,United States,41.1670412,-73.2048348,Americas,Northern America
441,Brighton,United Kingdom,50.8214626,-0.1400561,Europe,Northern Europe
442,Brikama,Gambia,13.258513,-16.4997039,Africa,Western Africa
443,Brisbane,Australia,-27.4689682,153.0234991,Oceania,Australia and New Zealand
444,Bristol,United Kingdom,51.4538022,-2.5972985,Europe,Northern Europe
445,Brits,South Africa,-25.6297222,27.7841667,Africa,Southern Africa
446,Brno,Czech Republic,49.1922443,16.6113382,Europe,Eastern Europe
447,Brownsville,United States,25.9015688,-97.4984005,Americas,Northern America
448,Brugge,Belgium,51.2085526,3.226772,Europe,Western Europe
449,Brunswick,Germany,52.2646577,10.5236066,Europe,Western Europe
450,Brussels,Belgium,50.8550018,4.3512334,Europe,Western Europe
451,Bryansk,Russia,53.2423778,34.3668288,Europe,Eastern Europe
452,Bucaramanga,Colombia,7.1255169,-73.1182624,Americas,South America
453,Bucharest,Romania,44.4361414,26.1027202,Europe,Eastern Europe
454,Budapest,Hungary,47.4978918,19.0401609,Europe,Eastern Europe
455,Budaun,India,28.0174669,79.1177591,Asia,Southern Asia
456,Buenaventura,Colombia,3.8881929,-77.0738324,Americas,South America
457,Buffalo,United States,42.8867166,-78.8783922,Americas,Northern America
458,Buga,Colombia,3.9000578,-76.302013,Americas,South America
459,Bugama,Nigeria,4.7340705,6.863451,Africa,Western Africa
460,Buhe,China,30.287567,112.229788,Asia,Eastern Asia
461,Bujumbura,Burundi,-3.3638125,29.3675028,Africa,Eastern Africa
462,Bukan,Iran,36.5215096,46.2111837,Asia,Southern Asia
463,Bukavu,Congo (Democratic Republic Of The),-2.4982396,28.8549055,Africa,Middle Africa
464,Bukit Mertajam,Malaysia,5.364244,100.4609767,Asia,South-Eastern Asia
465,Bulandshahr,India,28.416667,77.833333,Asia,Southern Asia
466,Bulaon,Philippines,15.0864351,120.6663126,Asia,South-Eastern Asia
467,Bulawayo,Zimbabwe,-20.1053948,28.5426856,Africa,Eastern Africa
468,Buon Me Thuot,Vietnam,12.6796827,108.0447368,Asia,South-Eastern Asia
469,Buraydah,Saudi Arabia,26.331667,43.971667,Asia,Western Asia
470,Burbank,United States,34.1812089,-118.307201,Americas,Northern America
471,Burewala,Pakistan,30.1588005,72.6796973,Asia,Southern Asia
472,Burgas,Bulgaria,42.444553,27.2082645,Europe,Eastern Europe
473,Burgos,Spain,42.343926,-3.696977,Europe,Southern Europe
474,Burhanpur,India,26.2697215,82.9944254,Asia,Southern Asia
475,Bursa,Turkey,40.182737,29.0675481,Asia,Western Asia
476,Bushehr,Iran,28.8936645,51.3204877,Asia,Southern Asia
477,Butembo,Congo (Democratic Republic Of The),0.14164,29.29117,Africa,Middle Africa
478,Butterworth,Malaysia,5.3933618,100.366572,Asia,South-Eastern Asia
479,Butuan,Philippines,8.9483324,125.5369442,Asia,South-Eastern Asia
480,Buzau,Romania,45.2692581,26.7748173,Europe,Eastern Europe
481,Bydgoszcz,Poland,53.1219648,18.0002529,Europe,Eastern Europe
482,Bytom,Poland,50.3657432,18.8715325,Europe,Eastern Europe
483,Bénin,Nigeria,6.3330586,5.6221058,Africa,Western Africa
484,Cabanatuan,Philippines,15.4905045,120.9684264,Asia,South-Eastern Asia
485,Cabimas,Venezuela,10.395075,-71.4414049,Americas,South America
486,Cabo Frio,Brazil,-22.8804369,-42.0189227,Americas,South America
487,Cabudare,Venezuela,10.0260507,-69.2436557,Americas,South America
488,Cachoeirinha,Brazil,-29.9493353,-51.0898927,Americas,South America
489,Cachoeiro De Itapemirim,Brazil,-20.848084,-41.11129,Americas,South America
490,Cadiz,Philippines,10.956652,123.3057034,Asia,South-Eastern Asia
491,Caen,France,49.1813403,-0.3635615,Europe,Western Europe
492,Cagayan De Oro,Philippines,8.4756417,124.6421532,Asia,South-Eastern Asia
493,Cagliari,Italy,39.2171994,9.113311,Europe,Southern Europe
494,Cagua,Venezuela,10.1796632,-67.4606765,Americas,South America
495,Cainta,Philippines,14.5780161,121.1163072,Asia,South-Eastern Asia
496,Cairns,Australia,-16.9206657,145.7721854,Oceania,Australia and New Zealand
497,Cairo,Egypt,30.0443879,31.2357257,Africa,Northern Africa
498,Cajamarca,Peru,-6.25,-78.833333,Americas,South America
499,Calabar,Nigeria,4.9795999,8.3373597,Africa,Western Africa
500,Calabozo,Venezuela,8.9179829,-67.4173328,Americas,South America
501,Calama,Chile,-22.4623917,-68.9272181,Americas,South America
502,Calamba,Philippines,14.2060217,121.1556496,Asia,South-Eastern Asia
503,Calcutta,India,22.5726459,88.3638953,Asia,Southern Asia
504,Calgary,Canada,51.0456064,-114.057541,Americas,Northern America
505,Cali,Colombia,3.4520339,-76.5329352,Americas,South America
506,Cam Pha,Vietnam,21.004432,107.278029,Asia,South-Eastern Asia
507,Cam Ranh,Vietnam,11.9166696,109.14861,Asia,South-Eastern Asia
508,Camagüey,Cuba,21.3791765,-77.9183681,Americas,Caribbean
509,Camaragibe,Brazil,-8.0213832,-34.9810768,Americas,South America
510,Camaçari,Brazil,-12.6998188,-38.3260762,Americas,South America
511,Cambridge,United Kingdom,52.2055314,0.1186637,Europe,Northern Europe
512,Campeche,Mexico,19.330194,-89.9435138,Americas,Central America
513,Campina Grande,Brazil,-7.2246743,-35.8771292,Americas,South America
514,Campinas,Brazil,-22.9056391,-47.059564,Americas,South America
515,Campo Grande,Brazil,-20.4640173,-54.6162947,Americas,South America
516,Campos,Brazil,-21.7546,-41.3242,Americas,South America
517,Can Tho,Vietnam,10.0364216,105.7875219,Asia,South-Eastern Asia
518,Canberra,Australia,-35.2975906,149.1012676,Oceania,Australia and New Zealand
519,Cancún,Mexico,21.1617854,-86.8510468,Americas,Central America
520,Cangzhou,China,38.3042796,116.8511597,Asia,Eastern Asia
521,Canoas,Brazil,-29.9216045,-51.1799525,Americas,South America
522,Cap Haïtien,Haiti,19.7595236,-72.2008068,Americas,Caribbean
523,Cape Coast,Ghana,5.107467,-1.2430793,Africa,Western Africa
524,Cape Coral,United States,26.6059432,-81.9806771,Americas,Northern America
525,Cape Town,South Africa,-33.928992,18.417396,Africa,Southern Africa
526,Capiatá,Paraguay,-25.3548171,-57.4427315,Americas,South America
527,Caracas,Venezuela,10.5060934,-66.9146008,Americas,South America
528,Carapicuíba,Brazil,-23.5234673,-46.8406808,Americas,South America
529,Cardiff,United Kingdom,51.4816546,-3.1791934,Europe,Northern Europe
530,Cariacica,Brazil,-20.263202,-40.416549,Americas,South America
531,Carmen,Mexico,18.4528233,-91.4128517,Americas,Central America
532,Carolina,Puerto Rico,18.3808516,-65.9570244,Americas,Caribbean
533,Carrefour,Haiti,18.5345373,-72.4092495,Americas,Caribbean
534,Carrollton,United States,32.9537349,-96.8902816,Americas,Northern America
535,Cartagena,Colombia,10.4266746,-75.5443419,Americas,South America
536,Cartago,Colombia,4.7465494,-75.9121234,Americas,South America
537,Caruaru,Brazil,-8.2829702,-35.9722852,Americas,South America
538,Cary,United States,35.7882893,-78.7812081,Americas,Northern America
539,Carúpano,Venezuela,10.6493808,-63.2542332,Americas,South America
540,Casablanca,Morocco,33.5945144,-7.6200284,Africa,Northern Africa
541,Cascavel,Brazil,-24.9554996,-53.4560544,Americas,South America
542,Castanhal,Brazil,-1.2927031,-47.9223903,Americas,South America
543,Catamarca,Argentina,-27.1910825,-67.105374,Americas,South America
544,Catanduva,Brazil,-21.1331035,-48.9712817,Americas,South America
545,Catania,Italy,37.5023612,15.0873718,Europe,Southern Europe
546,Catia La Mar,Venezuela,10.5990138,-67.0292735,Americas,South America
547,Caucaia,Brazil,-3.7300563,-38.6593082,Americas,South America
548,Cavite,Philippines,14.2554073,120.8671503,Asia,South-Eastern Asia
549,Caxias,Brazil,-29.1685045,-51.1796385,Americas,South America
550,Caxias Do Sul,Brazil,-29.1685045,-51.1796385,Americas,South America
551,Cebu,Philippines,10.2931062,123.9020773,Asia,South-Eastern Asia
552,Cedar Rapids,United States,41.9758872,-91.6704053,Americas,Northern America
553,Celaya,Mexico,20.521788,-100.8140458,Americas,Central America
554,Chakwal,Pakistan,32.932827,72.8629763,Asia,Southern Asia
555,Chalco,Mexico,19.2382585,-98.8188838,Americas,Central America
556,Champdani,India,22.79778,88.36583,Asia,Southern Asia
557,Chandannagar,India,22.8639237,88.3703496,Asia,Southern Asia
558,Chandausi,India,28.449104,78.7828513,Asia,Southern Asia
559,Chandigarh,India,30.7298439,76.7841457,Asia,Southern Asia
560,Chandler,United States,33.3062031,-111.8411851,Americas,Northern America
561,Chandpur,Bangladesh,23.2252149,90.7111818,Asia,Southern Asia
562,Chandrapur,India,20.0967555,79.5045475,Asia,Southern Asia
563,Changchun,China,43.8844201,125.3180998,Asia,Eastern Asia
564,Changde,China,29.034552,111.6928724,Asia,Eastern Asia
565,Changji,China,44.0096792,87.306069,Asia,Eastern Asia
566,Changzhou,China,31.8122623,119.9691539,Asia,Eastern Asia
567,Chaohu,China,31.6261473,117.8854283,Asia,Eastern Asia
568,Chaoyang,China,41.5754767,120.4390738,Asia,Eastern Asia
569,Chaozhou,China,23.656593,116.6204223,Asia,Eastern Asia
570,Chapecó,Brazil,-27.0922364,-52.6166878,Americas,South America
571,Charallave,Venezuela,10.2456598,-66.8586608,Americas,South America
572,Charleroi,Belgium,50.4116459,4.4445264,Europe,Western Europe
573,Charleston,United States,32.7884363,-79.9399309,Americas,Northern America
574,Charlotte,United States,35.2272086,-80.8430827,Americas,Northern America
575,Chas,India,23.5975274,86.1679581,Asia,Southern Asia
576,Chattanooga,United States,35.0457219,-85.3094883,Americas,Northern America
577,Chavakachcheri,Sri Lanka,9.6579014,80.1643076,Asia,Southern Asia
578,Cheboksary,Russia,56.1307195,47.2449597,Europe,Eastern Europe
579,Chelmsford,United Kingdom,51.7345329,0.4730532,Europe,Northern Europe
580,Cheltenham,United Kingdom,51.8995685,-2.0711559,Europe,Northern Europe
581,Chelyabinsk,Russia,55.1598408,61.4025547,Europe,Eastern Europe
582,Chemnitz,Germany,50.8322608,12.9252977,Europe,Western Europe
583,Chengde,China,40.9507147,117.9567031,Asia,Eastern Asia
584,Chengdu,China,30.6598628,104.0633717,Asia,Eastern Asia
585,Chenghai,China,23.4694075,116.7515585,Asia,Eastern Asia
586,Chenzhou,China,25.7733598,113.0094337,Asia,Eastern Asia
587,Cherepovets,Russia,59.128696,37.916389,Europe,Eastern Europe
588,Cherkasy,Ukraine,49.1460165,31.2271744,Europe,Eastern Europe
589,Cherkessk,Russia,44.225383,42.0681966,Europe,Eastern Europe
590,Chernihiv,Ukraine,51.272593,31.7417235,Europe,Eastern Europe
591,Chernivtsi,Ukraine,48.2864702,25.9376532,Europe,Eastern Europe
592,Chesapeake,United States,36.7183708,-76.2466798,Americas,Northern America
593,Chetumal,Mexico,18.5145865,-88.3005528,Americas,Central America
594,Chhapra,India,25.7784105,84.7514507,Asia,Southern Asia
595,Chhatarpur,India,24.75,79.75,Asia,Southern Asia
596,Chhindwara,India,22.116667,78.8,Asia,Southern Asia
597,Chiang Mai,Thailand,18.7882778,98.9858802,Asia,South-Eastern Asia
598,Chicago,United States,41.8755616,-87.6244212,Americas,Northern America
599,Chiclayo,Peru,-6.7716146,-79.8387175,Americas,South America
600,Chifeng,China,42.2811677,118.9426564,Asia,Eastern Asia
601,Chigasaki,Japan,35.329479,139.405371,Asia,Eastern Asia
602,Chihuahua,Mexico,28.5000001,-106.0000001,Americas,Central America
603,Chikmagalur,India,13.318014,75.7738743,Asia,Southern Asia
604,Chillan,Chile,-36.6066616,-72.1033194,Americas,South America
605,Chilpancingo,Mexico,17.5542149,-99.5048416,Americas,Central America
606,Chimalhuacán,Mexico,19.4339293,-98.9580149,Americas,Central America
607,Chimbote,Peru,-9.0744966,-78.593609,Americas,South America
608,Chimoio,Mozambique,-19.1437458,33.4780059,Africa,Eastern Africa
609,Chinandega,Nicaragua,12.8890816,-86.9577726,Americas,Central America
610,Chincha Alta,Peru,-13.417488,-76.1325726,Americas,South America
611,Chingola,Zambia,-12.5474926,27.8600422,Africa,Eastern Africa
612,Chiniot,Pakistan,31.7223135,72.9802538,Asia,Southern Asia
613,Chishtian Mandi,Pakistan,29.7978637,72.8594291,Asia,Southern Asia
614,Chisinau,Moldova,47.0245117,28.8322923,Europe,Eastern Europe
615,Chita,Russia,52.033409,113.500893,Europe,Eastern Europe
616,Chitradurga,India,14.2266443,76.4005122,Asia,Southern Asia
617,Chittaurgarh,India,24.5,74.5,Asia,Southern Asia
618,Chitungwiza,Zimbabwe,-18.0143462,31.0726737,Africa,Eastern Africa
619,Chizhou,China,30.6671088,117.4859885,Asia,Eastern Asia
620,Chofu,Japan,35.660036,139.554815,Asia,Eastern Asia
621,Choloma,Honduras,15.6127426,-87.950694,Americas,Central America
622,Chon Buri,Thailand,13.1857117,101.1210777,Asia,South-Eastern Asia
623,Chongqing,China,29.5656729,106.5479189,Asia,Eastern Asia
624,Chorzow,Poland,50.2885563,18.9704425,Europe,Eastern Europe
625,Chosica,Peru,-11.9367735,-76.6969111,Americas,South America
626,Christchurch,New Zealand,-43.530955,172.6366455,Oceania,Australia and New Zealand
627,Chula Vista,United States,32.6400541,-117.0841955,Americas,Northern America
628,Chuncheng,China,43.8765528,125.2646364,Asia,Eastern Asia
629,Chungho,Taiwan,24.999397,121.49898,Asia,Eastern Asia
630,Chupei,Taiwan,24.8357467,121.0030878,Asia,Eastern Asia
631,Churu,India,28.5,74.5,Asia,Southern Asia
632,Chuzhou,China,32.2545901,118.3280486,Asia,Eastern Asia
633,Ciamis,Indonesia,-7.3131593,108.4048938,Asia,South-Eastern Asia
634,Ciampea,Indonesia,-6.578945,106.7019724,Asia,South-Eastern Asia
635,Cianjur,Indonesia,-7.0542441,107.0691428,Asia,South-Eastern Asia
636,Cibadak,Indonesia,-6.9226316,107.5952567,Asia,South-Eastern Asia
637,Cibinong,Indonesia,-6.4824358,106.8383271,Asia,South-Eastern Asia
638,Cibitung,Indonesia,-6.2618811,107.0836549,Asia,South-Eastern Asia
639,Cicalengka,Indonesia,-6.9815914,107.8327237,Asia,South-Eastern Asia
640,Ciego De Ávila,Cuba,21.8419762,-78.7601053,Americas,Caribbean
641,Cienfuegos,Cuba,22.1459864,-80.4530775,Americas,Caribbean
642,Cikampek,Indonesia,-6.4064976,107.4588164,Asia,South-Eastern Asia
643,Cikarang,Indonesia,-6.2587148,107.145742,Asia,South-Eastern Asia
644,Cikupa,Indonesia,-6.2179975,106.5170845,Asia,South-Eastern Asia
645,Cilegon,Indonesia,-6.017389,106.0537688,Asia,South-Eastern Asia
646,Cileungsi,Indonesia,-6.3982206,106.9818924,Asia,South-Eastern Asia
647,Cileunyi,Indonesia,-6.9454616,107.7466656,Asia,South-Eastern Asia
648,Cimahi,Indonesia,-6.8731527,107.5423099,Asia,South-Eastern Asia
649,Cincinnati,United States,39.1014537,-84.5124602,Americas,Northern America
650,Ciomas,Indonesia,-6.5894574,106.7666223,Asia,South-Eastern Asia
651,Ciparay,Indonesia,-7.2696909,106.6187283,Asia,South-Eastern Asia
652,Ciputat,Indonesia,-6.3110779,106.7184109,Asia,South-Eastern Asia
653,Cirebon,Indonesia,-6.7137044,108.5608483,Asia,South-Eastern Asia
654,Cisaat,Indonesia,-7.0838483,107.8970122,Asia,South-Eastern Asia
655,Cisarua,Indonesia,-6.7084122,106.962275,Asia,South-Eastern Asia
656,Citeureup,Indonesia,-6.546294,105.6999768,Asia,South-Eastern Asia
657,Ciudad Bolívar,Venezuela,8.1028532,-63.5469562,Americas,South America
658,Ciudad Guayana,Venezuela,8.3223763,-62.6896622,Americas,South America
659,Ciudad Valles,Mexico,21.9916551,-99.0102967,Americas,Central America
660,Clarksville,United States,36.5277607,-87.3588703,Americas,Northern America
661,Clearwater,United States,27.9658533,-82.8001026,Americas,Northern America
662,Clermont Ferrand,France,45.7774551,3.0819427,Europe,Western Europe
663,Cleveland,United States,41.4996574,-81.6936772,Americas,Northern America
664,Cluj Napoca,Romania,46.769379,23.5899542,Europe,Eastern Europe
665,Coacalco,Mexico,19.6359452,-99.0948573,Americas,Central America
666,Coatzacoalcos,Mexico,18.1396787,-94.4501731,Americas,Central America
667,Cochabamba,Bolivia,-17.4012458,-66.1675681,Americas,South America
668,Coimbra,Portugal,40.2111931,-8.4294632,Europe,Southern Europe
669,Colatina,Brazil,-19.5346732,-40.6287836,Americas,South America
670,Colchester,United Kingdom,51.8896903,0.8994651,Europe,Northern Europe
671,Colima,Mexico,19.166667,-104,Americas,Central America
672,Cologne,Germany,50.938361,6.959974,Europe,Western Europe
673,Colombo,Brazil,-25.2925439,-49.2243472,Americas,South America
674,Colorado Springs,United States,38.8339578,-104.825348,Americas,Northern America
675,Columbia,United States,34.0374165,-80.8224045,Americas,Northern America
676,Columbus,United States,39.9622601,-83.0007065,Americas,Northern America
677,Comodoro Rivadavia,Argentina,-45.8632024,-67.4752615,Americas,South America
678,Conakry,Guinea,9.5170602,-13.6998434,Africa,Western Africa
679,Concepcion,Chile,-36.8270795,-73.0502399,Americas,South America
680,Concord,United States,43.207178,-71.537476,Americas,Northern America
681,Concordia,Argentina,-31.3972539,-58.0173305,Americas,South America
682,Conselheiro Lafaiete,Brazil,-20.6596107,-43.785743,Americas,South America
683,Constanta,Romania,44.1767161,28.6507598,Europe,Eastern Europe
684,Constantine,Algeria,36.3641642,6.6084281,Africa,Northern Africa
685,Contagem,Brazil,-19.9132749,-44.0840953,Americas,South America
686,Copenhagen,Denmark,55.6867243,12.5700724,Europe,Northern Europe
687,Copiapo,Chile,-27.3664685,-70.3322753,Americas,South America
688,Coquimbo,Chile,-30.7546652,-70.9005536,Americas,South America
689,Coral Springs,United States,26.271192,-80.2706044,Americas,Northern America
690,Cordoba,Argentina,-31.4166867,-64.1834193,Americas,South America
691,Cork,Ireland,51.897077,-8.4654674,Europe,Northern Europe
692,Coro,Venezuela,11.4055796,-69.6679115,Americas,South America
693,Corona,United States,33.8752945,-117.5664449,Americas,Northern America
694,Coronel Fabriciano,Brazil,-19.5200067,-42.6282686,Americas,South America
695,Corpus Christi,United States,27.7635302,-97.4033191,Americas,Northern America
696,Corrientes,Argentina,-28.991123,-57.8125606,Americas,South America
697,Costa Mesa,United States,33.6633386,-117.903317,Americas,Northern America
698,Cotabato,Philippines,7.27,124.86,Asia,South-Eastern Asia
699,Cotia,Brazil,-23.603889,-46.918889,Americas,South America
700,Cotonou,Benin,6.3676953,2.4252507,Africa,Western Africa
701,Cottbus,Germany,51.7567447,14.3357307,Europe,Western Europe
702,Coventry,United Kingdom,52.4081812,-1.510477,Europe,Northern Europe
703,Cracow,Poland,50.0606452,19.9370985,Europe,Eastern Europe
704,Craiova,Romania,44.3190159,23.7965614,Europe,Eastern Europe
705,Crawley,United Kingdom,51.1103444,-0.1801094,Europe,Northern Europe
706,Criciúma,Brazil,-28.6789941,-49.3695627,Americas,South America
707,Cuautitlán Izcalli,Mexico,19.6531356,-99.2145002,Americas,Central America
708,Cuautla,Mexico,20.2036094,-104.4858267,Americas,Central America
709,Cubatão,Brazil,-23.8857982,-46.4241869,Americas,South America
710,Cuddapah,India,14.4956602,78.8349278,Asia,Southern Asia
711,Cuenca,Ecuador,-2.8974072,-79.0041726,Americas,South America
712,Cuernavaca,Mexico,18.9218274,-99.2342282,Americas,Central America
713,Cuiabá,Brazil,-15.5986686,-56.0991301,Americas,South America
714,Culiacán,Mexico,24.7978965,-107.393395,Americas,Central America
715,Cumaná,Venezuela,10.4495706,-64.1578046,Americas,South America
716,Curico,Chile,-34.985368,-71.2393705,Americas,South America
717,Curitiba,Brazil,-25.4295963,-49.2712724,Americas,South America
718,Curug,Indonesia,-6.2371399,106.5670201,Asia,South-Eastern Asia
719,Cusco,Peru,-13.5170887,-71.9785356,Americas,South America
720,Czestochowa,Poland,50.8089997,19.1244089,Europe,Eastern Europe
721,Cà Mau,Vietnam,9.0180177,105.0869724,Asia,South-Eastern Asia
722,Córdoba,Mexico,18.8944704,-96.9352891,Americas,Central America
723,Cúa,Venezuela,10.1653676,-66.8865117,Americas,South America
724,Cúcuta,Colombia,7.8971458,-72.5080387,Americas,South America
725,Da Lat,Vietnam,11.9402416,108.4375758,Asia,South-Eastern Asia
726,Da Nang,Vietnam,16.068,108.212,Asia,South-Eastern Asia
727,Daan,China,45.5044225,124.2855828,Asia,Eastern Asia
728,Dabrowa Gornicza,Poland,50.3308692,19.2078918,Europe,Eastern Europe
729,Dadiangas,Philippines,6.112331,125.1717145,Asia,South-Eastern Asia
730,Dadu,Pakistan,26.7274836,67.7804974,Asia,Southern Asia
731,Dagupan,Philippines,16.043021,120.3337627,Asia,South-Eastern Asia
732,Dahuk,Iraq,37.042257,43.0953954,Asia,Western Asia
733,Daito,Japan,34.710679,135.635478,Asia,Eastern Asia
734,Dakar,Senegal,14.693425,-17.447938,Africa,Western Africa
735,Dali,China,25.6074778,100.2651597,Asia,Eastern Asia
736,Dalian,China,38.9181714,121.6282945,Asia,Eastern Asia
737,Daliang,China,39.542285,117.0889186,Asia,Eastern Asia
738,Dallas,United States,32.7762719,-96.7968559,Americas,Northern America
739,Daloa,Côte D'Ivoire,6.8766904,-6.4516096,Africa,Western Africa
740,Damascus,Syria,33.5130695,36.3095814,Asia,Western Asia
741,Damaturu,Nigeria,11.747,11.9608,Africa,Western Africa
742,Damoh,India,23.75,79.583333,Asia,Southern Asia
743,Dandong,China,40.128668,124.3863404,Asia,Eastern Asia
744,Danshui,China,33.2091312,111.6718608,Asia,Eastern Asia
745,Dar Es Salaam,Tanzania,-6.8160837,39.2803583,Africa,Eastern Africa
746,Darbhanga,India,26.156999,85.8995065,Asia,Southern Asia
747,Darjiling,India,26.75,88.25,Asia,Southern Asia
748,Darmstadt,Germany,49.872775,8.651177,Europe,Western Europe
749,Daska,Pakistan,32.3323692,74.352516,Asia,Southern Asia
750,Dasmariñas,Philippines,14.3270819,120.9370871,Asia,South-Eastern Asia
751,Dasoguz,Turkmenistan,41.3862117,58.5586047,Asia,Central Asia
752,Datong,China,40.0919817,113.2951122,Asia,Eastern Asia
753,Daugavpils,Latvia,55.8712267,26.5159337,Europe,Northern Europe
754,Davao,Philippines,7.0648306,125.6080623,Asia,South-Eastern Asia
755,Dawei,Burma,14.0797232,98.1990191,Asia,South-Eastern Asia
756,Dawukou,China,39.0186505,106.3620755,Asia,Eastern Asia
757,Daxian,China,31.1989633,107.5078704,Asia,Eastern Asia
758,Dayton,United States,39.7589478,-84.1916069,Americas,Northern America
759,Debre Zeyit,Ethiopia,10.5854867,35.7919701,Africa,Eastern Africa
760,Debrecen,Hungary,47.531399,21.6259782,Europe,Eastern Europe
761,Dehra Dun,India,30.3255646,78.0436813,Asia,Southern Asia
762,Dehri,India,24.9258862,84.1728723,Asia,Southern Asia
763,Dehui,China,44.5350141,125.6954363,Asia,Eastern Asia
764,Dekernes,Egypt,31.0875714,31.5949593,Africa,Northern Africa
765,Delhi,India,28.6273928,77.1716954,Asia,Southern Asia
766,Delicias,Mexico,28.1909814,-105.469426,Americas,Central America
767,Delmas,Haiti,18.5518464,-72.2920071,Americas,Caribbean
768,Denizli,Turkey,37.7833152,29.0844832,Asia,Western Asia
769,Denpasar,Indonesia,-8.6524973,115.2191175,Asia,South-Eastern Asia
770,Denton,United States,33.1838787,-97.1413417,Americas,Northern America
771,Denver,United States,39.7392364,-104.984862,Americas,Northern America
772,Deoria,India,26.666667,83.75,Asia,Southern Asia
773,Depok,Indonesia,-6.40719,106.8158371,Asia,South-Eastern Asia
774,Dera Ghazi Khan,Pakistan,30.0321374,70.6401114,Asia,Southern Asia
775,Dera Ismail Khan,Pakistan,31.827527,70.9090919,Asia,Southern Asia
776,Derbent,Russia,42.057858,48.2887648,Europe,Eastern Europe
777,Derby,United Kingdom,52.9212617,-1.4761491,Europe,Northern Europe
778,Des Moines,United States,41.5910323,-93.6046655,Americas,Northern America
779,Dese,Ethiopia,11.122604,39.634982,Africa,Eastern Africa
780,Detroit,United States,42.3315509,-83.0466403,Americas,Northern America
781,Dewas,India,23,76.166667,Asia,Southern Asia
782,Deyang,China,31.1244028,104.39013,Asia,Eastern Asia
783,Dezful,Iran,32.3780257,48.4032064,Asia,Southern Asia
784,Dezhou,China,37.4363704,116.3534091,Asia,Eastern Asia
785,Dhaka,Bangladesh,23.7644025,90.389015,Asia,Southern Asia
786,Dhanbad,India,23.7952809,86.4309638,Asia,Southern Asia
787,Dharan,Nepal,26.7953984,87.2770255,Asia,Southern Asia
788,Dharmavaram,India,14.4223472,77.7200689,Asia,Southern Asia
789,Dhaulpur,India,26.7010642,77.896749,Asia,Southern Asia
790,Dhule,India,21.1305215,74.4900614,Asia,Southern Asia
791,Diadema,Brazil,-23.6866428,-46.6246935,Americas,South America
792,Dibrugarh,India,27.4844597,94.9019447,Asia,Southern Asia
793,Didao,China,45.3466325,130.8367458,Asia,Eastern Asia
794,Digos,Philippines,6.7443797,125.3556265,Asia,South-Eastern Asia
795,Dijon,France,47.3215806,5.0414701,Europe,Western Europe
796,Dimapur,India,25.911744,93.721703,Asia,Southern Asia
797,Dimitrovgrad,Russia,54.2188995,49.6038982,Europe,Eastern Europe
798,Dinajpur,Bangladesh,25.6260712,88.6346228,Asia,Southern Asia
799,Dindigul,India,10.3303299,78.0673979,Asia,Southern Asia
800,Dingzhou,China,38.5112175,114.9970044,Asia,Eastern Asia
801,Diourbel,Senegal,14.7043898,-16.0511737,Africa,Western Africa
802,Dire Dawa,Ethiopia,9.5913193,41.8566373,Africa,Eastern Africa
803,Divinópolis,Brazil,-20.1597921,-44.8739341,Americas,South America
804,Divo,Côte D'Ivoire,5.8294045,-5.3592251,Africa,Western Africa
805,Djougou,Benin,9.7106683,1.6651614,Africa,Western Africa
806,Do Rud,Iran,33.5048351,48.7983885,Asia,Southern Asia
807,Dodoma,Tanzania,-6.1791181,35.7468174,Africa,Eastern Africa
808,Doha,Qatar,25.2856329,51.5264162,Asia,Western Asia
809,Donghai,China,34.5226778,118.7611785,Asia,Eastern Asia
810,Dongli,China,39.0856963,117.3075578,Asia,Eastern Asia
811,Dongling,China,41.7511576,123.5931891,Asia,Eastern Asia
812,Dongtai,China,32.8536216,120.3122464,Asia,Eastern Asia
813,Dongying,China,37.4334738,118.6689349,Asia,Eastern Asia
814,Dordrecht,Netherlands,51.7958812,4.6779351,Europe,Western Europe
815,Dortmund,Germany,51.5142273,7.4652789,Europe,Western Europe
816,Dos Hermanas,Spain,37.283689,-5.9226718,Europe,Southern Europe
817,Dos Quebradas,Colombia,3.3890813,-76.6229386,Americas,South America
818,Douala,Cameroon,4.0429408,9.706203,Africa,Middle Africa
819,Dourados,Brazil,-22.2206145,-54.812208,Americas,South America
820,Downey,United States,33.9404441,-118.1292846,Americas,Northern America
821,Dresden,Germany,51.0493286,13.7381437,Europe,Western Europe
822,Drobeta Turnu Severin,Romania,44.6257835,22.6531975,Europe,Eastern Europe
823,Dubai,United Arab Emirates,25.0742823,55.1885387,Asia,Western Asia
824,Dublin,Ireland,53.3493795,-6.2605593,Europe,Northern Europe
825,Dudley,United Kingdom,52.5110832,-2.0816813,Europe,Northern Europe
826,Duisburg,Germany,51.434999,6.759562,Europe,Western Europe
827,Dum Dum,India,22.6520597,88.4360417,Asia,Southern Asia
828,Duma,Syria,33.5696629,36.4012933,Asia,Western Asia
829,Dumaguete,Philippines,9.3054777,123.3080446,Asia,South-Eastern Asia
830,Dumai,Indonesia,1.6631967,101.4470369,Asia,South-Eastern Asia
831,Dundee,United Kingdom,56.4605938,-2.97019,Europe,Northern Europe
832,Dunedin,New Zealand,-45.8740984,170.5035755,Oceania,Australia and New Zealand
833,Dunhua,China,43.3686963,128.2269345,Asia,Eastern Asia
834,Duque De Caxias,Brazil,-22.7896225,-43.309929,Americas,South America
835,Durango,Mexico,24.833333,-104.833333,Americas,Central America
836,Durban,South Africa,-29.861825,31.009909,Africa,Southern Africa
837,Durg,India,21.1896499,81.2851077,Asia,Southern Asia
838,Durgapur,India,23.5350475,87.3380425,Asia,Southern Asia
839,Durham,United States,35.996653,-78.9018053,Americas,Northern America
840,Durrës,Albania,41.3310569,19.4567926,Europe,Southern Europe
841,Dushanbe,Tajikistan,38.5856947,68.7603747,Asia,Central Asia
842,Dzerzhinsk,Russia,56.2382157,43.4617405,Europe,Eastern Europe
843,Düsseldorf,Germany,51.2254018,6.7763137,Europe,Western Europe
844,East London,South Africa,-33.0191604,27.8998573,Africa,Southern Africa
845,East Los Angeles,United States,34.0239015,-118.172015,Americas,Northern America
846,Eastbourne,United Kingdom,50.7664372,0.2781546,Europe,Northern Europe
847,Ebetsu,Japan,43.1037358,141.535894,Asia,Eastern Asia
848,Ebina,Japan,35.4530142,139.3916744,Asia,Eastern Asia
849,Ecatepec,Mexico,19.5994083,-99.0487281,Americas,Central America
850,Ede,Netherlands,52.0716825,5.7455106,Europe,Western Europe
851,Edinburgh,United Kingdom,55.9533456,-3.1883749,Europe,Northern Europe
852,Edirne,Turkey,41.6763707,26.5566834,Asia,Western Asia
853,Edison,United States,40.518157,-74.4113926,Americas,Northern America
854,Edmonton,Canada,53.5462055,-113.491241,Americas,Northern America
855,Edéa,Cameroon,3.7990131,10.1265567,Africa,Middle Africa
856,Eindhoven,Netherlands,51.4392648,5.478633,Europe,Western Europe
857,Ejido,Venezuela,8.5524805,-71.2409192,Americas,South America
858,Ejigbo,Nigeria,7.8999894,4.3167086,Africa,Western Africa
859,Ekibastuz,Kazakhstan,51.7275817,75.3288511,Asia,Central Asia
860,El Faiyûm,Egypt,29.2361375,30.9833095,Africa,Northern Africa
861,El Limón,Venezuela,10.1326932,-64.2576385,Americas,South America
862,El Mahalla El Kubra,Egypt,30.9723517,31.1683002,Africa,Northern Africa
863,El Monte,United States,34.0751571,-118.036849,Americas,Northern America
864,El Paso,United States,31.7550511,-106.488234,Americas,Northern America
865,El Progreso,Honduras,15.474779,-87.7559949,Americas,Central America
866,El Tigre,Venezuela,8.8862119,-64.2488754,Americas,South America
867,Elbasan,Albania,41.1105874,20.0794072,Europe,Southern Europe
868,Elblag,Poland,54.1558708,19.4044583,Europe,Eastern Europe
869,Eldoret,Kenya,0.5198329,35.2715481,Africa,Eastern Africa
870,Elektrostal,Russia,55.7903785,38.4405711,Europe,Eastern Europe
871,Elista,Russia,46.306999,44.270187,Europe,Eastern Europe
872,Elizabeth,United States,40.6639916,-74.2107006,Americas,Northern America
873,Eluru,India,17.015219,81.0804542,Asia,Southern Asia
874,Embu,Brazil,-23.6495294,-46.8528497,Americas,South America
875,Emmen,Netherlands,52.7528662,6.9525135,Europe,Western Europe
876,Encheng,China,37.1517357,116.2704379,Asia,Eastern Asia
877,Engels,Russia,51.5013775,46.1233093,Europe,Eastern Europe
878,Enschede,Netherlands,52.2209855,6.8940537,Europe,Western Europe
879,Ensenada,Mexico,31.8658887,-116.602983,Americas,Central America
880,Enugu,Nigeria,6.5536094,7.4143061,Africa,Western Africa
881,Envigado,Colombia,6.1701348,-75.587415,Americas,South America
882,Erfurt,Germany,50.9777974,11.0287364,Europe,Western Europe
883,Erlangen,Germany,49.5928616,11.0056,Europe,Western Europe
884,Erode,India,11.3692044,77.6766269,Asia,Southern Asia
885,Erzincan,Turkey,39.6073429,39.2013209,Asia,Western Asia
886,Erzurum,Turkey,39.90632,41.2727715,Asia,Western Asia
887,Escondido,United States,33.1216751,-117.0814849,Americas,Northern America
888,Escuintla,Guatemala,14.3022857,-90.7866243,Americas,Central America
889,Esenyurt,Turkey,41.0342862,28.6801113,Asia,Western Asia
890,Esfahan,Iran,32.6707877,51.6650002,Asia,Southern Asia
891,Eskisehir,Turkey,39.7743941,30.519116,Asia,Western Asia
892,Eslamshahr,Iran,35.5478513,51.2318676,Asia,Southern Asia
893,Esmeraldas,Brazil,-19.7613111,-44.3145945,Americas,South America
894,Espoo,Finland,60.2047672,24.6568435,Europe,Northern Europe
895,Essen,Germany,51.4582235,7.0158171,Europe,Western Europe
896,Etah,India,27.5,78.75,Asia,Southern Asia
897,Etawah,India,26.8197814,79.060403,Asia,Southern Asia
898,Eugene,United States,44.0505054,-123.0950506,Americas,Northern America
899,Evansville,United States,37.970495,-87.5715641,Americas,Northern America
900,Exeter,United Kingdom,50.7255794,-3.5269497,Europe,Northern Europe
901,Ezhou,China,30.3925379,114.8898988,Asia,Eastern Asia
902,Fairfield,United States,39.7886111,-82.6418883,Americas,Northern America
903,Faisalabad,Pakistan,31.4220558,73.0923253,Asia,Southern Asia
904,Faizabad,India,26.6829142,82.2589481,Asia,Southern Asia
905,Faridabad,India,28.4031478,77.3105561,Asia,Southern Asia
906,Faridpur,Bangladesh,24.1606327,89.4427491,Asia,Southern Asia
907,Farrukhabad,India,27.4371938,79.4891295,Asia,Southern Asia
908,Fatehpur,India,25.75,80.75,Asia,Southern Asia
909,Fayetteville,United States,36.0625843,-94.1574328,Americas,Northern America
910,Feira De Santana,Brazil,-12.2578934,-38.9598047,Americas,South America
911,Fengcheng,China,28.1608671,115.7660799,Asia,Eastern Asia
912,Fengshan,Taiwan,22.6270943,120.3627723,Asia,Eastern Asia
913,Fernando De La Mora,Paraguay,-25.3281673,-57.5521492,Americas,South America
914,Ferrara,Italy,44.7667642,11.827939,Europe,Southern Europe
915,Ferraz De Vasconcelos,Brazil,-23.541056,-46.37097,Americas,South America
916,Fez,Morocco,34.0346534,-5.0161926,Africa,Northern Africa
917,Fianarantsoa,Madagascar,-21.456444,47.085149,Africa,Eastern Africa
918,Firozabad,India,27.1773663,78.389912,Asia,Southern Asia
919,Firozpur,India,30.333333,74.416667,Asia,Southern Asia
920,Flint,United States,43.0161693,-83.6900211,Americas,Northern America
921,Florence,Italy,43.7698712,11.2555757,Europe,Southern Europe
922,Florencia,Colombia,1.7554212,-75.6081198,Americas,South America
923,Florianópolis,Brazil,-27.5973002,-48.5496098,Americas,South America
924,Floridablanca,Colombia,7.0625358,-73.0858228,Americas,South America
925,Focsani,Romania,45.697274,27.1856921,Europe,Eastern Europe
926,Foggia,Italy,41.5028105,15.4528996,Europe,Southern Europe
927,Fontana,United States,34.0922335,-117.435048,Americas,Northern America
928,Forlì,Italy,44.2227278,12.041273,Europe,Southern Europe
929,Formosa,Argentina,-24.5955306,-60.4289718,Americas,South America
930,Fort Collins,United States,40.5508527,-105.0668085,Americas,Northern America
931,Fort Lauderdale,United States,26.1223084,-80.1433786,Americas,Northern America
932,Fort Wayne,United States,41.0799898,-85.1386015,Americas,Northern America
933,Fort Worth,United States,32.753177,-97.3327459,Americas,Northern America
934,Fortaleza,Brazil,-3.7304512,-38.5217989,Americas,South America
935,Foshan,China,23.0239788,113.1159558,Asia,Eastern Asia
936,Foz Do Iguaçu,Brazil,-25.5401479,-54.5858139,Americas,South America
937,Franca,Brazil,-20.5381768,-47.4009795,Americas,South America
938,Francisco Morato,Brazil,-23.2817308,-46.7448996,Americas,South America
939,Franco Da Rocha,Brazil,-23.3328038,-46.724446,Americas,South America
940,Frankfurt,Germany,50.1106444,8.6820917,Europe,Western Europe
941,Freetown,Sierra Leone,8.479004,-13.26795,Africa,Western Africa
942,Freiburg,Germany,47.9960901,7.8494005,Europe,Western Europe
943,Fremont,United States,37.5482697,-121.988571,Americas,Northern America
944,Fresnillo,Mexico,23.1811278,-102.8729073,Americas,Central America
945,Fresno,United States,36.7394421,-119.78483,Americas,Northern America
946,Fuchu,Japan,34.5683141,133.2366327,Asia,Eastern Asia
947,Fuenlabrada,Spain,40.282476,-3.7923422,Europe,Southern Europe
948,Fuji,Japan,35.362799,138.730781,Asia,Eastern Asia
949,Fujieda,Japan,34.8674167,138.2577222,Asia,Eastern Asia
950,Fujimi,Japan,35.9083257,138.2026202,Asia,Eastern Asia
951,Fujinomiya,Japan,35.2221369,138.6214683,Asia,Eastern Asia
952,Fujisawa,Japan,35.364842,139.465077,Asia,Eastern Asia
953,Fukaya,Japan,36.1915583,139.2810987,Asia,Eastern Asia
954,Fukuyama,Japan,34.4857039,133.3623097,Asia,Eastern Asia
955,Fuling,China,29.7065405,107.3910809,Asia,Eastern Asia
956,Fullerton,United States,33.8708215,-117.9294165,Americas,Northern America
957,Funabashi,Japan,35.699997,139.988668,Asia,Eastern Asia
958,Funtua,Nigeria,11.5232142,7.307497,Africa,Western Africa
959,Fushun,China,41.8011658,124.7459491,Asia,Eastern Asia
960,Fuxin,China,42.0151733,121.6452868,Asia,Eastern Asia
961,Fuyang,China,32.8926763,115.8090001,Asia,Eastern Asia
962,Fuyu,China,45.1570494,125.6310583,Asia,Eastern Asia
963,Fuzhou,China,27.9511188,116.3530413,Asia,Eastern Asia
964,Fürth,Germany,49.4772475,10.9893626,Europe,Western Europe
965,Gaborone,Botswana,-24.6581357,25.9088474,Africa,Southern Africa
966,Gadag,India,15.4210866,75.6545593,Asia,Southern Asia
967,Gagnoa,Côte D'Ivoire,6.1329749,-5.9517697,Africa,Western Africa
968,Gainesville,United States,29.6519684,-82.3249846,Americas,Northern America
969,Galati,Romania,45.4338215,28.0549395,Europe,Eastern Europe
970,Gandajika,Congo (Democratic Republic Of The),-6.74504,23.95328,Africa,Middle Africa
971,Gandhidham,India,23.0718743,70.131715,Asia,Southern Asia
972,Gandhinagar,India,23.2232877,72.6492267,Asia,Southern Asia
973,Ganganagar,India,23.7497214,91.876635,Asia,Southern Asia
974,Gangapur,India,26.4391539,76.694701,Asia,Southern Asia
975,Gangawati,India,15.7212791,76.7392516,Asia,Southern Asia
976,Ganzhou,China,25.8332103,114.9287362,Asia,Eastern Asia
977,Gaomi,China,36.3654065,119.8005385,Asia,Eastern Asia
978,Gaozhou,China,22.0461477,110.9644447,Asia,Eastern Asia
979,Garanhuns,Brazil,-8.8905889,-36.4930896,Americas,South America
980,Garden Grove,United States,33.7746292,-117.9463717,Americas,Northern America
981,Gardez,Afghanistan,33.6014533,69.2235518,Asia,Southern Asia
982,Garland,United States,32.912624,-96.6388833,Americas,Northern America
983,Garoua,Cameroon,9.3070698,13.3934527,Africa,Middle Africa
984,Garut,Indonesia,-7.2162543,107.9014912,Asia,South-Eastern Asia
985,Garza García,Mexico,25.7351594,-100.3319854,Americas,Central America
986,Gashua,Nigeria,12.8728546,11.0387809,Africa,Western Africa
987,Gaya,India,24.7964355,85.0079563,Asia,Southern Asia
988,Gaziantep,Turkey,37.0628317,37.3792617,Asia,Western Asia
989,Gazipur,Bangladesh,23.9997558,90.4173629,Asia,Southern Asia
990,Gazni,Afghanistan,33.3149631,67.828989,Asia,Southern Asia
991,Gboko,Nigeria,7.3778482,8.8713224,Africa,Western Africa
992,Gbongan,Nigeria,7.466667,4.35,Africa,Western Africa
993,Gdansk,Poland,54.3706858,18.6129821,Europe,Eastern Europe
994,Gdynia,Poland,54.5233304,18.6040279,Europe,Eastern Europe
995,Gebze,Turkey,40.8006696,29.431767,Asia,Western Asia
996,Geelong,Australia,-38.1493248,144.3598241,Oceania,Australia and New Zealand
997,Gejiu,China,23.3618738,103.1577391,Asia,Eastern Asia
998,Gelsenkirchen,Germany,51.5110321,7.0960124,Europe,Western Europe
999,Gemena,Congo (Democratic Republic Of The),3.23537,19.77126,Africa,Middle Africa
1000,General Escobedo,Mexico,25.808517,-100.3224334,Americas,Central America
1001,Geneva,Switzerland,46.2017559,6.1466014,Europe,Western Europe
1002,Genoa,Italy,44.40726,8.9338624,Europe,Southern Europe
1003,Gent,Belgium,51.0538286,3.7250121,Europe,Western Europe
1004,George,South Africa,-33.9597212,22.4587148,Africa,Southern Africa
1005,Georgetown,Guyana,6.8137426,-58.1624465,Americas,South America
1006,Gera,Germany,50.8772301,12.0796208,Europe,Western Europe
1007,Getafe,Spain,40.3081807,-3.7302679,Europe,Southern Europe
1008,Ghaziabad,India,28.6711527,77.4120356,Asia,Southern Asia
1009,Ghazipur,India,25.6384313,83.5654191,Asia,Southern Asia
1010,Gijón,Spain,43.5449422,-5.66275,Europe,Southern Europe
1011,Gilbert,United States,33.3527632,-111.789037,Americas,Northern America
1012,Gillingham,United Kingdom,51.3871701,0.5461611,Europe,Northern Europe
1013,Girardot,Colombia,4.306643,-74.8015665,Americas,South America
1014,Girón,Colombia,7.0732333,-73.1689196,Americas,South America
1015,Giugliano In Campania,Italy,40.9283217,14.2011232,Europe,Southern Europe
1016,Gizeh,Egypt,29.9870753,31.2118063,Africa,Northern Africa
1017,Glasgow,United Kingdom,55.861155,-4.2501687,Europe,Northern Europe
1018,Glazov,Russia,58.1401196,52.6464388,Europe,Eastern Europe
1019,Glendale,United States,34.1469416,-118.2478471,Americas,Northern America
1020,Gliwice,Poland,50.294113,18.6657306,Europe,Eastern Europe
1021,Gloucester,United Kingdom,51.8653705,-2.2458192,Europe,Northern Europe
1022,Godhra,India,22.7785001,73.6245157,Asia,Southern Asia
1023,Goiânia,Brazil,-16.680882,-49.2532691,Americas,South America
1024,Gojra,Pakistan,31.1482371,72.6859082,Asia,Southern Asia
1025,Gold Coast,Australia,-28.0023731,153.4145987,Oceania,Australia and New Zealand
1026,Goma,Congo (Democratic Republic Of The),-1.67409,29.22845,Africa,Middle Africa
1027,Gombe,Nigeria,10.38301,11.206567,Africa,Western Africa
1028,Gomel,Belarus,52.4238936,31.0131698,Europe,Eastern Europe
1029,Gonbad E Qabus,Iran,37.2492965,55.1659018,Asia,Southern Asia
1030,Gonda,India,27.1096669,81.9183291,Asia,Southern Asia
1031,Gondal,India,21.9349644,70.7849753,Asia,Southern Asia
1032,Gondar,Ethiopia,12.610368,37.466766,Africa,Eastern Africa
1033,Gongzhuling,China,43.7703784,124.7656749,Asia,Eastern Asia
1034,Gorakhpur,India,26.6711433,83.3645724,Asia,Southern Asia
1035,Gorgan,Iran,36.8392776,54.4320858,Asia,Southern Asia
1036,Gorontalo,Indonesia,0.7186174,122.4555927,Asia,South-Eastern Asia
1037,Gorzow Wielkopolski,Poland,52.7309926,15.2400451,Europe,Eastern Europe
1038,Governador Valadares,Brazil,-18.8539497,-41.9458753,Americas,South America
1039,Granada,Spain,37.1734995,-3.5995337,Europe,Southern Europe
1040,Grand Prairie,United States,32.7459645,-96.9977846,Americas,Northern America
1041,Grand Rapids,United States,42.9632425,-85.6678639,Americas,Northern America
1042,Gravataí,Brazil,-29.9440222,-50.9930938,Americas,South America
1043,Graz,Austria,47.0708678,15.4382786,Europe,Western Europe
1044,Green Bay,United States,44.5126379,-88.0125794,Americas,Northern America
1045,Greensboro,United States,36.0726355,-79.7919754,Americas,Northern America
1046,Grenoble,France,45.1875602,5.7357819,Europe,Western Europe
1047,Grogol,Indonesia,-6.161329,106.7948841,Asia,South-Eastern Asia
1048,Groningen,Netherlands,53.2190652,6.5680077,Europe,Western Europe
1049,Guacara,Venezuela,10.2172127,-67.8836179,Americas,South America
1050,Guadalajara,Mexico,20.6720375,-103.338396,Americas,Central America
1051,Guadalupe,Mexico,25.6751114,-100.2151753,Americas,Central America
1052,Guanare,Venezuela,9.0407855,-69.7412593,Americas,South America
1053,Guangshui,China,31.6190052,113.8203522,Asia,Eastern Asia
1054,Guangyuan,China,32.4329637,105.8563402,Asia,Eastern Asia
1055,Guangzhou,China,23.1301964,113.2592945,Asia,Eastern Asia
1056,Guantánamo,Cuba,20.1431797,-75.2034783,Americas,Caribbean
1057,Guarapari,Brazil,-20.6718755,-40.4984617,Americas,South America
1058,Guarapuava,Brazil,-25.3950986,-51.4622016,Americas,South America
1059,Guaratinguetá,Brazil,-22.8057839,-45.1908926,Americas,South America
1060,Guarenas,Venezuela,10.466288,-66.6078417,Americas,South America
1061,Guarujá,Brazil,-23.9927768,-46.2558332,Americas,South America
1062,Guarulhos,Brazil,-23.4675941,-46.5277704,Americas,South America
1063,Guatemala,Guatemala,15.5855545,-90.345759,Americas,Central America
1064,Guatemala City,Guatemala,14.6424667,-90.5131361,Americas,Central America
1065,Guatire,Venezuela,10.4684588,-66.5431115,Americas,South America
1066,Guayaquil,Ecuador,-2.1900563,-79.8868741,Americas,South America
1067,Guaymas,Mexico,27.9216441,-110.8994059,Americas,Central America
1068,Guaíba,Brazil,-30.1130731,-51.329442,Americas,South America
1069,Gudalur,India,11.5446376,76.4903921,Asia,Southern Asia
1070,Gudivada,India,16.4329976,80.9937151,Asia,Southern Asia
1071,Guelph,Canada,43.5460516,-80.2493276,Americas,Northern America
1072,Guilin,China,25.238704,110.1750728,Asia,Eastern Asia
1073,Guiyang,China,26.6499922,106.6246178,Asia,Eastern Asia
1074,Gujranwala,Pakistan,32.1525312,74.1933745,Asia,Southern Asia
1075,Gujrat,Pakistan,32.5686782,74.071481,Asia,Southern Asia
1076,Gulbarga,India,17.166667,77.083333,Asia,Southern Asia
1077,Gulu,Uganda,3.0199023,32.388251,Africa,Eastern Africa
1078,Guna,India,24.5,77.5,Asia,Southern Asia
1079,Guntakal,India,15.1196507,77.4552903,Asia,Southern Asia
1080,Guntur,India,16.2915189,80.4541588,Asia,Southern Asia
1081,Gurgaon,India,28.4282624,77.0027001,Asia,Southern Asia
1082,Gusau,Nigeria,12.1658358,6.6606398,Africa,Western Africa
1083,Guwahati,India,26.1805978,91.753943,Asia,Southern Asia
1084,Gwalior,India,26.2037247,78.1573628,Asia,Southern Asia
1085,Gweru,Zimbabwe,-19.4616316,29.8205953,Africa,Eastern Africa
1086,Gyor,Hungary,47.687609,17.6346815,Europe,Eastern Europe
1087,Gyumri,Armenia,40.7852085,43.8416095,Asia,Western Asia
1088,Gómez Palacio,Mexico,25.5732473,-103.494779,Americas,Central America
1089,Göteborg,Sweden,57.7072326,11.9670171,Europe,Northern Europe
1090,Göttingen,Germany,51.5328328,9.9351811,Europe,Western Europe
1091,Ha Noi,Vietnam,21.0358135,105.84035,Asia,South-Eastern Asia
1092,Haarlem,Netherlands,52.3837058,4.6435597,Europe,Western Europe
1093,Haarlemmermeer,Netherlands,52.3238421,4.7152612,Europe,Western Europe
1094,Habikino,Japan,34.54158,135.599097,Asia,Eastern Asia
1095,Habra,India,22.8400629,88.6630678,Asia,Southern Asia
1096,Hachinohe,Japan,40.5122388,141.4882959,Asia,Eastern Asia
1097,Hachioji,Japan,35.655389,139.3394669,Asia,Eastern Asia
1098,Hadano,Japan,35.3746619,139.2420729,Asia,Eastern Asia
1099,Hadejia,Nigeria,12.4526098,10.0418934,Africa,Western Africa
1100,Hafizabad,Pakistan,32.072546,73.6857558,Asia,Southern Asia
1101,Hagen,Germany,51.3582945,7.473296,Europe,Western Europe
1102,Hagonoy,Philippines,14.8355035,120.7335206,Asia,South-Eastern Asia
1103,Hai Phong,Vietnam,20.858864,106.6749591,Asia,South-Eastern Asia
1104,Haibowan,China,39.6905523,106.8177375,Asia,Eastern Asia
1105,Haicheng,China,40.8522995,122.7477959,Asia,Eastern Asia
1106,Haifa,Israel,32.8191218,34.9983856,Asia,Western Asia
1107,Haikou,China,20.0462328,110.1956502,Asia,Eastern Asia
1108,Hailar,China,49.2388564,120.0228716,Asia,Eastern Asia
1109,Hailun,China,47.4165095,126.8214728,Asia,Eastern Asia
1110,Haimen,China,31.8862923,121.1523388,Asia,Eastern Asia
1111,Hajipur,India,25.7205805,85.2555596,Asia,Southern Asia
1112,Hakodate,Japan,41.768793,140.729008,Asia,Eastern Asia
1113,Haldia,India,22.028124,88.0632655,Asia,Southern Asia
1114,Haldwani,India,29.2144809,79.5279012,Asia,Southern Asia
1115,Halifax,Canada,44.648618,-63.5859487,Americas,Northern America
1116,Halisahar,India,22.9322475,88.4248587,Asia,Southern Asia
1117,Halle,Germany,51.4825041,11.9705452,Europe,Western Europe
1118,Hamadan,Iran,34.9726302,48.6563818,Asia,Southern Asia
1119,Hamamatsu,Japan,34.7109786,137.7259431,Asia,Eastern Asia
1120,Hamburg,Germany,53.550341,10.000654,Europe,Western Europe
1121,Hami,China,42.817404,93.5142008,Asia,Eastern Asia
1122,Hamilton,Canada,43.2560802,-79.8728583,Americas,Northern America
1123,Hamm,Germany,51.6804093,7.815197,Europe,Western Europe
1124,Hampton,United States,37.0300969,-76.3452057,Americas,Northern America
1125,Handa,Japan,34.8938136,136.9369523,Asia,Eastern Asia
1126,Handan,China,36.583333,114.483333,Asia,Eastern Asia
1127,Hangu,China,39.35807,117.9190975,Asia,Eastern Asia
1128,Hangzhou,China,30.2489634,120.2052342,Asia,Eastern Asia
1129,Hanoi,Vietnam,21.0358135,105.84035,Asia,South-Eastern Asia
1130,Hanover,Germany,52.3744779,9.7385532,Europe,Western Europe
1131,Hanumangarh,India,29.5760254,74.3342203,Asia,Southern Asia
1132,Hanzhong,China,33.069049,107.018889,Asia,Eastern Asia
1133,Haora,India,22.5736296,88.3251045,Asia,Southern Asia
1134,Hapur,India,28.7406125,77.8354256,Asia,Southern Asia
1135,Harare,Zimbabwe,-17.831773,31.045686,Africa,Eastern Africa
1136,Harbin,China,45.7593633,126.6276177,Asia,Eastern Asia
1137,Hardoi,India,27.4164715,80.2473372,Asia,Southern Asia
1138,Hargeysa,Somalia,9.561733,44.061803,Africa,Eastern Africa
1139,Haridwar,India,29.9384473,78.1452985,Asia,Southern Asia
1140,Hartford,United States,41.764582,-72.6908547,Americas,Northern America
1141,Hassan,India,13.0070817,76.0992703,Asia,Southern Asia
1142,Hat Yai,Thailand,7.0074644,100.4689889,Asia,South-Eastern Asia
1143,Hathras,India,27.5692133,78.0685129,Asia,Southern Asia
1144,Hayward,United States,37.6688205,-122.080796,Americas,Northern America
1145,Hazaribag,India,24,85.25,Asia,Southern Asia
1146,Hebi,China,35.7494986,114.2912899,Asia,Eastern Asia
1147,Hefei,China,31.8228094,117.2218033,Asia,Eastern Asia
1148,Hegang,China,47.328863,130.2816917,Asia,Eastern Asia
1149,Heidelberg,Germany,49.4093582,8.694724,Europe,Western Europe
1150,Heihe,Russia,60,100,Europe,Eastern Europe
1151,Heilbronn,Germany,49.142291,9.218655,Europe,Western Europe
1152,Helsinki,Finland,60.1674881,24.9427473,Europe,Northern Europe
1153,Henderson,United States,32.182598,-95.7893178,Americas,Northern America
1154,Hengshan,China,37.9621718,109.2886002,Asia,Eastern Asia
1155,Hengshui,China,37.7364305,115.6677229,Asia,Eastern Asia
1156,Hengyang,China,26.8971898,112.5665703,Asia,Eastern Asia
1157,Henzada,Burma,17.6457472,95.4609517,Asia,South-Eastern Asia
1158,Herat,Afghanistan,34.3508273,62.2164003,Asia,Southern Asia
1159,Hermosillo,Mexico,29.0948207,-110.9692202,Americas,Central America
1160,Herne,Germany,51.5380394,7.219985,Europe,Western Europe
1161,Heze,China,35.2477266,115.4464761,Asia,Eastern Asia
1162,Hialeah,United States,25.8575963,-80.2781057,Americas,Northern America
1163,Highlands Ranch,United States,39.5497243,-104.9695655,Americas,Northern America
1164,Higüey,Dominican Republic,18.6127983,-68.7119822,Americas,Caribbean
1165,Hikone,Japan,35.254276,136.215376,Asia,Eastern Asia
1166,Hildesheim,Germany,52.1521636,9.9513046,Europe,Western Europe
1167,Himeji,Japan,34.8153529,134.6854793,Asia,Eastern Asia
1168,Hindupur,India,13.8306127,77.492635,Asia,Southern Asia
1169,Hino,Japan,35.6610715,139.4147051,Asia,Eastern Asia
1170,Hirakata,Japan,34.818215,135.659225,Asia,Eastern Asia
1171,Hiratsuka,Japan,35.357674,139.318278,Asia,Eastern Asia
1172,Hirosaki,Japan,40.6030543,140.4640389,Asia,Eastern Asia
1173,Hiroshima,Japan,34.3917241,132.4517589,Asia,Eastern Asia
1174,Hisar,India,29.080641,75.7887541,Asia,Southern Asia
1175,Hitachi,Japan,36.5991225,140.6504604,Asia,Eastern Asia
1176,Ho Chi Minh City,Vietnam,10.7763897,106.7011391,Asia,South-Eastern Asia
1177,Hobart,Australia,-42.8825088,147.3281233,Oceania,Australia and New Zealand
1178,Hofu,Japan,34.0517226,131.5629141,Asia,Eastern Asia
1179,Hohhot,China,40.8337963,111.6730788,Asia,Eastern Asia
1180,Holguín,Cuba,20.9115576,-75.7891978,Americas,Caribbean
1181,Hollywood,United States,34.0980031,-118.329523,Americas,Northern America
1182,Hong Gai,Vietnam,20.9506793,107.0747169,Asia,South-Eastern Asia
1183,Honggang,China,46.3966917,124.8844111,Asia,Eastern Asia
1184,Honghu,China,29.8287906,113.4706905,Asia,Eastern Asia
1185,Horlivka,Ukraine,48.3058686,38.0027664,Europe,Eastern Europe
1186,Hortolândia,Brazil,-22.8620175,-47.2164219,Americas,South America
1187,Hoshangabad,India,22.6503147,77.7509281,Asia,Southern Asia
1188,Hoshiarpur,India,31.5328523,75.9025485,Asia,Southern Asia
1189,Hospet,India,15.266493,76.3872297,Asia,Southern Asia
1190,Hosur,India,12.7328844,77.8309478,Asia,Southern Asia
1191,Houma,China,35.6254159,111.362708,Asia,Eastern Asia
1192,Houston,United States,29.7589382,-95.3676974,Americas,Northern America
1193,Hrodna,Belarus,53.6834599,23.8342648,Europe,Eastern Europe
1194,Hsichih,Taiwan,25.0641586,121.6587475,Asia,Eastern Asia
1195,Hsinchu,Taiwan,24.8066333,120.9686833,Asia,Eastern Asia
1196,Hsintien,Taiwan,25.0199154,121.5205627,Asia,Eastern Asia
1197,Huadian,China,43.106389,126.975,Asia,Eastern Asia
1198,Huaibei,China,33.9566098,116.7928916,Asia,Eastern Asia
1199,Huaihua,China,27.659483,110.143549,Asia,Eastern Asia
1200,Huainan,China,32.5866826,117.0130019,Asia,Eastern Asia
1201,Huaiyin,China,36.6522591,116.8955753,Asia,Eastern Asia
1202,Huambo,Angola,-12.6076318,15.7411039,Africa,Middle Africa
1203,Huancayo,Peru,-12.068098,-75.2100953,Americas,South America
1204,Huangcun,China,23.1344798,113.4015189,Asia,Eastern Asia
1205,Huangpu,China,31.2335925,121.479864,Asia,Eastern Asia
1206,Huangyan,China,28.65319,121.2576325,Asia,Eastern Asia
1207,Huangzhou,China,30.4369576,114.8750766,Asia,Eastern Asia
1208,Hubli,India,15.3518378,75.1379848,Asia,Southern Asia
1209,Huddersfield,United Kingdom,53.6466645,-1.7822482,Europe,Northern Europe
1210,Hue,Vietnam,16.4639321,107.5863388,Asia,South-Eastern Asia
1211,Huelva,Spain,37.2575874,-6.9484945,Europe,Southern Europe
1212,Huicheng,China,23.0870863,114.3775971,Asia,Eastern Asia
1213,Huixquilucan,Mexico,19.3709328,-99.3568074,Americas,Central America
1214,Huizhou,China,23.1146515,114.4107202,Asia,Eastern Asia
1215,Hulan,China,45.8881935,126.5850305,Asia,Eastern Asia
1216,Hulan Ergi,China,47.2074162,123.6294983,Asia,Eastern Asia
1217,Humen,China,22.816245,113.6684225,Asia,Eastern Asia
1218,Huntington Beach,United States,33.6783336,-118.0000166,Americas,Northern America
1219,Huntsville,United States,34.729847,-86.5859011,Americas,Northern America
1220,Huzhou,China,30.8942995,120.0851114,Asia,Eastern Asia
1221,Huánuco,Peru,-9.5,-75.833333,Americas,South America
1222,Hyderabad,India,17.360589,78.4740613,Asia,Southern Asia
1223,Hòa Bình,Vietnam,20.8252056,105.3431291,Asia,South-Eastern Asia
1224,Iasi,Romania,47.1615416,27.5837224,Europe,Eastern Europe
1225,Ibadan,Nigeria,7.3777462,3.8972497,Africa,Western Africa
1226,Ibagué,Colombia,4.43917,-75.2113267,Americas,South America
1227,Ibaraki,Japan,36.2869536,140.4703384,Asia,Eastern Asia
1228,Ibarra,Ecuador,0.3520459,-78.1199716,Americas,South America
1229,Ibb,Yemen,13.4115414,43.5570871,Asia,Western Asia
1230,Ibirité,Brazil,-20.0214251,-44.0621506,Americas,South America
1231,Ica,Peru,-14.3325,-75.499722,Americas,South America
1232,Ichalkaranji,India,16.6959348,74.4555755,Asia,Southern Asia
1233,Ichihara,Japan,35.497775,140.1156996,Asia,Eastern Asia
1234,Ichikawa,Japan,35.729412,139.928568,Asia,Eastern Asia
1235,Ichinomiya,Japan,35.304878,136.806915,Asia,Eastern Asia
1236,Idlib,Syria,35.8595974,36.5713701,Asia,Western Asia
1237,Ife,Nigeria,7.482824,4.5604451,Africa,Western Africa
1238,Igboho,Nigeria,8.844257,3.757991,Africa,Western Africa
1239,Iguala,Mexico,18.3466358,-99.5376944,Americas,Central America
1240,Iida,Japan,35.5147101,137.8219519,Asia,Eastern Asia
1241,Ijero,Nigeria,7.8317358,5.0583553,Africa,Western Africa
1242,Ikare,Nigeria,6.418407,3.2355625,Africa,Western Africa
1243,Ikere,Nigeria,7.491328,5.232248,Africa,Western Africa
1244,Ikire,Nigeria,7.716667,4.233333,Africa,Western Africa
1245,Ikirun,Nigeria,7.916667,4.666667,Africa,Western Africa
1246,Ikole,Nigeria,7.7888484,5.5050471,Africa,Western Africa
1247,Ikoma,Japan,34.6915267,135.6961681,Asia,Eastern Asia
1248,Ikorodu,Nigeria,6.6191233,3.5041271,Africa,Western Africa
1249,Ikot Ekpene,Nigeria,5.181975,7.7132177,Africa,Western Africa
1250,Ila,Nigeria,7.666667,4.666667,Africa,Western Africa
1251,Ilam,Iran,33.1545696,46.7576343,Asia,Southern Asia
1252,Ilawe,Nigeria,7.5989035,5.1057231,Africa,Western Africa
1253,Ilebo,Congo (Democratic Republic Of The),-4.33333,20.58333,Africa,Middle Africa
1254,Ilesha,Nigeria,7.6245894,4.7414655,Africa,Western Africa
1255,Ilhéus,Brazil,-14.792599,-39.0453843,Americas,South America
1256,Iligan,Philippines,8.2281556,124.2411508,Asia,South-Eastern Asia
1257,Ilobu,Nigeria,7.8408473,4.4853735,Africa,Western Africa
1258,Iloilo,Philippines,10.9522168,122.5799456,Asia,South-Eastern Asia
1259,Ilorin,Nigeria,8.4963657,4.5480484,Africa,Western Africa
1260,Imabari,Japan,34.0658182,132.9976758,Asia,Eastern Asia
1261,Imperatriz,Brazil,-5.5269279,-47.478115,Americas,South America
1262,Imphal,India,24.7991162,93.9364419,Asia,Southern Asia
1263,Inazawa,Japan,35.240484,136.758964,Asia,Eastern Asia
1264,Indaiatuba,Brazil,-23.0908356,-47.2180677,Americas,South America
1265,Independence,United States,39.0924792,-94.4137923,Americas,Northern America
1266,Indianapolis,United States,39.7683331,-86.1583502,Americas,Northern America
1267,Indore,India,22.7203616,75.8681996,Asia,Southern Asia
1268,Indramayu,Indonesia,-4.0517644,103.7798337,Asia,South-Eastern Asia
1269,Inegol,Turkey,40.0800359,29.5096528,Asia,Western Asia
1270,Inglewood,United States,33.9562003,-118.353132,Americas,Northern America
1271,Ingolstadt,Germany,48.7630165,11.4250395,Europe,Western Europe
1272,Ingraj Bazar,India,25.0057449,88.1398483,Asia,Southern Asia
1273,Inisa,Nigeria,7.985087,4.645545,Africa,Western Africa
1274,Innsbruck,Austria,47.2654296,11.3927685,Europe,Western Europe
1275,Ipatinga,Brazil,-19.4777807,-42.5270802,Americas,South America
1276,Ipoh,Malaysia,4.5986817,101.0900236,Asia,South-Eastern Asia
1277,Ipswich,United Kingdom,52.0579324,1.1528095,Europe,Northern Europe
1278,Iquique,Chile,-20.2140657,-70.1524646,Americas,South America
1279,Iquitos,Peru,-3.749365,-73.2444145,Americas,South America
1280,Iranshahr,Iran,27.2069903,60.6882515,Asia,Southern Asia
1281,Irapuato,Mexico,20.6758761,-101.3521052,Americas,Central America
1282,Irbid,Jordan,32.5556091,35.8493023,Asia,Western Asia
1283,Irbil,Iraq,36.528412,44.4563064,Asia,Western Asia
1284,Iringa,Tanzania,-7.5662123,35.0744807,Africa,Eastern Africa
1285,Irkutsk,Russia,52.2891225,104.279829,Europe,Eastern Europe
1286,Iruma,Japan,35.8358142,139.3909293,Asia,Eastern Asia
1287,Irvine,United States,33.6856969,-117.8259819,Americas,Northern America
1288,Irving,United States,32.8295183,-96.9442177,Americas,Northern America
1289,Iráklion,Greece,35.33908,25.1332843,Europe,Southern Europe
1290,Ise,Nigeria,6.4170528,4.2129931,Africa,Western Africa
1291,Isehara,Japan,35.4023968,139.2996106,Asia,Eastern Asia
1292,Isesaki,Japan,36.3111734,139.1968083,Asia,Eastern Asia
1293,Iseyin,Nigeria,7.9710106,3.5956141,Africa,Western Africa
1294,Ishinomaki,Japan,38.4341281,141.3028087,Asia,Eastern Asia
1295,Isiro,Congo (Democratic Republic Of The),2.77391,27.61603,Africa,Middle Africa
1296,Iskenderun,Turkey,36.5902266,36.1710354,Asia,Western Asia
1297,Islamabad,Pakistan,33.6938118,73.0651511,Asia,Southern Asia
1298,Ismailia,Egypt,30.3671977,32.1565462,Africa,Northern Africa
1299,Isparta,Turkey,37.9465412,30.9602093,Asia,Western Asia
1300,Istanbul,Turkey,41.006381,28.9758715,Asia,Western Asia
1301,Itaboraí,Brazil,-22.7496231,-42.8557428,Americas,South America
1302,Itabuna,Brazil,-14.793173,-39.2750341,Americas,South America
1303,Itaguaí,Brazil,-22.8629597,-43.775322,Americas,South America
1304,Itagüí,Colombia,6.1724352,-75.6093254,Americas,South America
1305,Itajaí,Brazil,-26.9046787,-48.6552979,Americas,South America
1306,Itami,Japan,34.786159,135.407994,Asia,Eastern Asia
1307,Itapecerica Da Serra,Brazil,-23.7176303,-46.8492435,Americas,South America
1308,Itapetininga,Brazil,-23.588607,-48.048326,Americas,South America
1309,Itapevi,Brazil,-23.54888,-46.933889,Americas,South America
1310,Itaquaquecetuba,Brazil,-23.4754492,-46.3514033,Americas,South America
1311,Itarsi,India,22.6122527,77.7782601,Asia,Southern Asia
1312,Itu,Brazil,-23.2637798,-47.2998462,Americas,South America
1313,Ivanovo,Russia,56.9984452,40.9737394,Europe,Eastern Europe
1314,Iwaki,Japan,37.0504227,140.8876338,Asia,Eastern Asia
1315,Iwakuni,Japan,34.1664995,132.2191163,Asia,Eastern Asia
1316,Iwatsuki,Japan,35.9500131,139.6943932,Asia,Eastern Asia
1317,Iwo,Nigeria,7.633333,4.183333,Africa,Western Africa
1318,Ixtapaluca,Mexico,19.3129326,-98.8840481,Americas,Central America
1319,Izhevsk,Russia,56.866557,53.2094166,Europe,Eastern Europe
1320,Izmir,Turkey,38.4237433,27.1428019,Asia,Western Asia
1321,Izmit,Turkey,40.7718611,29.9498078,Asia,Western Asia
1322,Izumi,Japan,34.43108,135.474789,Asia,Eastern Asia
1323,Jabalpur,India,23.1608938,79.9497702,Asia,Southern Asia
1324,Jaboatão,Brazil,-8.1752476,-34.9468716,Americas,South America
1325,Jacareí,Brazil,-23.3050682,-45.9723075,Americas,South America
1326,Jackson,United States,32.2998686,-90.1830408,Americas,Northern America
1327,Jacksonville,United States,30.3321838,-81.655651,Americas,Northern America
1328,Jacobabad,Pakistan,28.2813094,68.4364361,Asia,Southern Asia
1329,Jaffna,Sri Lanka,9.665093,80.0093029,Asia,Southern Asia
1330,Jagadhri,India,30.1532045,77.3011957,Asia,Southern Asia
1331,Jahrom,Iran,28.4961762,53.5593366,Asia,Southern Asia
1332,Jaipur,India,26.9154576,75.8189817,Asia,Southern Asia
1333,Jakarta,Indonesia,-6.175247,106.8270488,Asia,South-Eastern Asia
1334,Jalalabad,Afghanistan,34.430195,70.460128,Asia,Southern Asia
1335,Jalandhar,India,31.3323762,75.576889,Asia,Southern Asia
1336,Jalingo,Nigeria,8.8945377,11.3644261,Africa,Western Africa
1337,Jalna,India,19.918833,75.8708599,Asia,Southern Asia
1338,Jalpaiguri,India,26.5241586,88.7197513,Asia,Southern Asia
1339,Jamalpur,Bangladesh,24.9255866,89.9436684,Asia,Southern Asia
1340,Jamame,Somalia,0.0785706,42.7497327,Africa,Eastern Africa
1341,Jambi,Indonesia,-1.6394711,102.9454264,Asia,South-Eastern Asia
1342,Jammu,India,32.7185614,74.8580917,Asia,Southern Asia
1343,Jamnagar,India,22.4732415,70.0552102,Asia,Southern Asia
1344,Jamshedpur,India,22.8015194,86.2029579,Asia,Southern Asia
1345,Jamuria,India,23.7279289,87.1249887,Asia,Southern Asia
1346,Jandira,Brazil,-23.5282246,-46.902003,Americas,South America
1347,Jaraguá Do Sul,Brazil,-26.4897432,-49.0778063,Americas,South America
1348,Jaramana,Syria,52.6393917,9.2071887,Asia,Western Asia
1349,Jaranwala,Pakistan,31.3330181,73.4183387,Asia,Southern Asia
1350,Jaunpur,India,25.75,82.75,Asia,Southern Asia
1351,Jaén,Spain,37.9557275,-3.4920556,Europe,Southern Europe
1352,Jaú,Brazil,-22.293585,-48.559193,Americas,South America
1353,Jember,Indonesia,-8.1688563,113.7021772,Asia,South-Eastern Asia
1354,Jequié,Brazil,-13.8604033,-40.0719627,Americas,South America
1355,Jerez,Spain,36.6816936,-6.1377402,Europe,Southern Europe
1356,Jersey City,United States,40.7215682,-74.047455,Americas,Northern America
1357,Jerusalem,Israel,31.7788242,35.2257626,Asia,Western Asia
1358,Jetpur,India,21.7543725,70.6189391,Asia,Southern Asia
1359,Jhang,Pakistan,31.2728805,72.3103071,Asia,Southern Asia
1360,Jhansi,India,25.3548646,78.4256442,Asia,Southern Asia
1361,Jhelum,Pakistan,32.9247256,73.719388,Asia,Southern Asia
1362,Jhunjhunun,India,28,75.5,Asia,Southern Asia
1363,Ji Paraná,Brazil,-10.8778148,-61.9277854,Americas,South America
1364,Jiamusi,China,46.8037423,130.3747185,Asia,Eastern Asia
1365,Jian,China,27.0431288,114.9034181,Asia,Eastern Asia
1366,Jiangmen,China,22.5816619,113.0761073,Asia,Eastern Asia
1367,Jiangyin,China,31.9092756,120.2630426,Asia,Eastern Asia
1368,Jiangyou,China,31.7777135,104.73443,Asia,Eastern Asia
1369,Jiaohe,China,43.6848768,127.3578579,Asia,Eastern Asia
1370,Jiaojiang,China,28.6758042,121.4385711,Asia,Eastern Asia
1371,Jiaozhou,China,36.2640866,120.0284928,Asia,Eastern Asia
1372,Jiaozuo,China,35.2075729,113.2533977,Asia,Eastern Asia
1373,Jiaxing,China,30.7474425,120.7510971,Asia,Eastern Asia
1374,Jiayuguan,China,39.7722294,98.2885388,Asia,Eastern Asia
1375,Jiazi,China,19.100961,109.873545,Asia,Eastern Asia
1376,Jibuti,Djibouti,11.8145966,42.8453061,Africa,Eastern Africa
1377,Jiddah,Saudi Arabia,21.5810088,39.1653612,Asia,Western Asia
1378,Jieshi,China,37.2755331,121.8689373,Asia,Eastern Asia
1379,Jieshou,China,33.2619055,115.3540362,Asia,Eastern Asia
1380,Jilin,China,43.7289674,126.1997366,Asia,Eastern Asia
1381,Jimeta,Nigeria,9.2780486,12.4528047,Africa,Western Africa
1382,Jimma,Ethiopia,7.6756152,36.8478779,Africa,Eastern Africa
1383,Jinan,China,36.6507007,117.1140042,Asia,Eastern Asia
1384,Jinchang,China,38.449693,102.058389,Asia,Eastern Asia
1385,Jinchengjiang,China,24.6694836,107.8541551,Asia,Eastern Asia
1386,Jind,India,29.3018262,76.3384708,Asia,Southern Asia
1387,Jingdezhen,China,29.2712774,117.1727822,Asia,Eastern Asia
1388,Jinhua,China,29.1080344,119.6486487,Asia,Eastern Asia
1389,Jining,China,35.4125047,116.5849266,Asia,Eastern Asia
1390,Jinxi,China,27.9211117,116.7492151,Asia,Eastern Asia
1391,Jinzhou,China,41.1087113,121.1186159,Asia,Eastern Asia
1392,Jiroft,Iran,28.6697367,57.7373382,Asia,Southern Asia
1393,Jishou,China,28.265262,109.6938658,Asia,Eastern Asia
1394,Jishu,China,34.9555189,116.1920038,Asia,Eastern Asia
1395,Jiujiang,China,29.6653828,115.9474861,Asia,Eastern Asia
1396,Jiupu,China,25.7518495,104.5150541,Asia,Eastern Asia
1397,Jiutai,China,44.2473733,126.0575422,Asia,Eastern Asia
1398,Jiutepec,Mexico,18.8863894,-99.1701224,Americas,Central America
1399,Jixi,China,45.2928513,130.9619259,Asia,Eastern Asia
1400,Jodhpur,India,26.2967719,73.0351433,Asia,Southern Asia
1401,Joetsu,Japan,37.1478816,138.2359501,Asia,Eastern Asia
1402,Johannesburg,South Africa,-26.205,28.049722,Africa,Southern Africa
1403,Johor Bahru,Malaysia,1.503555,103.7495586,Asia,South-Eastern Asia
1404,Joinville,Brazil,-26.3044898,-48.8486726,Americas,South America
1405,Joliet,United States,41.5263603,-88.0840212,Americas,Northern America
1406,Jolo,Philippines,6.0536561,121.0002644,Asia,South-Eastern Asia
1407,Jombang,Indonesia,-7.561464,112.2413044,Asia,South-Eastern Asia
1408,Jos,Nigeria,9.9175125,8.8979401,Africa,Western Africa
1409,João Pessoa,Brazil,-7.1215981,-34.882028,Americas,South America
1410,Juarez,Mexico,17.7006623,-93.1978917,Americas,Central America
1411,Juazeiro Do Norte,Brazil,-7.2153453,-39.3153336,Americas,South America
1412,Juba,Sudan,12.1518352,24.4522866,Africa,Northern Africa
1413,Juiz De Fora,Brazil,-21.7609533,-43.3501129,Americas,South America
1414,Jujuy,Argentina,-23.3161458,-65.7595288,Americas,South America
1415,Juliaca,Peru,-15.4932314,-70.1356177,Americas,South America
1416,Junagadh,India,21.5174104,70.4642754,Asia,Southern Asia
1417,Jundiaí,Brazil,-23.1887668,-46.884506,Americas,South America
1418,Juàzeiro,Brazil,-9.4336959,-40.5068201,Americas,South America
1419,Kabankalan,Philippines,9.9889153,122.8134802,Asia,South-Eastern Asia
1420,Kabul,Afghanistan,34.5260109,69.1776838,Asia,Southern Asia
1421,Kabwe,Zambia,-14.4434056,28.4465166,Africa,Eastern Africa
1422,Kadoma,Japan,34.728801,135.59691,Asia,Eastern Asia
1423,Kaduna,Nigeria,10.3825318,7.8533226,Africa,Western Africa
1424,Kahramanmaras,Turkey,37.7830345,36.830655,Asia,Western Asia
1425,Kaifeng,China,34.604167,114.497222,Asia,Eastern Asia
1426,Kaili,China,26.5710542,107.9769525,Asia,Eastern Asia
1427,Kaithal,India,29.8228207,76.3783099,Asia,Southern Asia
1428,Kaiyuan,China,42.5434674,124.0382894,Asia,Eastern Asia
1429,Kakamigahara,Japan,35.3995831,136.8485648,Asia,Eastern Asia
1430,Kakinada,India,16.9971671,82.2457999,Asia,Southern Asia
1431,Kakogawa,Japan,34.786771,134.8498955,Asia,Eastern Asia
1432,Kalemie,Congo (Democratic Republic Of The),-5.94749,29.19471,Africa,Middle Africa
1433,Kaliningrad,Russia,54.710128,20.5105838,Europe,Eastern Europe
1434,Kalisz,Poland,51.747365,18.0795901,Europe,Eastern Europe
1435,Kallithéa,Greece,37.9560111,23.7033792,Europe,Southern Europe
1436,Kalmunai,Sri Lanka,7.4131557,81.8269327,Asia,Southern Asia
1437,Kalol,India,22.6103179,73.4617061,Asia,Southern Asia
1438,Kaluga,Russia,54.5101087,36.2598115,Europe,Eastern Europe
1439,Kalyan,India,19.2716301,73.2358655,Asia,Southern Asia
1440,Kamagaya,Japan,35.7766455,140.0007147,Asia,Eastern Asia
1441,Kamakura,Japan,35.329564,139.54442,Asia,Eastern Asia
1442,Kamalia,Pakistan,30.7269883,72.6450218,Asia,Southern Asia
1443,Kamarhati,India,22.6810246,88.3715343,Asia,Southern Asia
1444,Kamensk Uralskiy,Russia,56.4361052,61.9807621,Europe,Eastern Europe
1445,Kamoke,Pakistan,31.9749253,74.2218684,Asia,Southern Asia
1446,Kampala,Uganda,0.3177137,32.5813539,Africa,Eastern Africa
1447,Kamyshin,Russia,50.0808422,45.4048003,Europe,Eastern Europe
1448,Kananga,Congo (Democratic Republic Of The),-5.90006,22.46917,Africa,Middle Africa
1449,Kanchipuram,India,12.9647163,79.9839686,Asia,Southern Asia
1450,Kanchrapara,India,22.9496431,88.4378838,Asia,Southern Asia
1451,Kandi,Benin,11.2849785,3.0464209,Africa,Western Africa
1452,Kandy,Sri Lanka,7.214308,80.6400801,Asia,Southern Asia
1453,Kankan,Guinea,10.6248355,-9.3175166,Africa,Western Africa
1454,Kano,Nigeria,11.8948389,8.5364136,Africa,Western Africa
1455,Kanpur,India,26.4609135,80.3217588,Asia,Southern Asia
1456,Kansas City,United States,39.100105,-94.5781416,Americas,Northern America
1457,Kansk,Russia,56.205997,95.706787,Europe,Eastern Europe
1458,Kaohsiung,Taiwan,22.6203348,120.3120375,Asia,Eastern Asia
1459,Kaolack,Senegal,14.0480773,-16.0155083,Africa,Western Africa
1460,Kapra,India,17.4846356,78.5610095,Asia,Southern Asia
1461,Karachi,Pakistan,24.8546842,67.0207055,Asia,Southern Asia
1462,Karaj,Iran,35.8224892,50.9904681,Asia,Southern Asia
1463,Karaman,Turkey,37.1796848,33.3383665,Asia,Western Asia
1464,Karamay,China,45.5778068,84.8867252,Asia,Eastern Asia
1465,Karang Tengah,Indonesia,-6.216049,106.7098189,Asia,South-Eastern Asia
1466,Karawang,Indonesia,-6.3021906,107.3046116,Asia,South-Eastern Asia
1467,Karimnagar,India,18.4348122,79.1328042,Asia,Southern Asia
1468,Kariya,Japan,34.974678,137.002791,Asia,Eastern Asia
1469,Karlsruhe,Germany,49.0068705,8.4034195,Europe,Western Europe
1470,Karnal,India,29.6803266,76.9896254,Asia,Southern Asia
1471,Kashan,Iran,33.9876533,51.4428856,Asia,Southern Asia
1472,Kashi,China,39.4702981,75.9874816,Asia,Eastern Asia
1473,Kashihara,Japan,34.5094067,135.792955,Asia,Eastern Asia
1474,Kashipur,India,29.2117573,78.9617306,Asia,Southern Asia
1475,Kashiwa,Japan,35.8676218,139.9756876,Asia,Eastern Asia
1476,Kassala,Sudan,15.452011,36.3770699,Africa,Northern Africa
1477,Kassel,Germany,51.3154546,9.4924096,Europe,Western Europe
1478,Kasuga,Japan,33.5326446,130.4713013,Asia,Eastern Asia
1479,Kasugai,Japan,35.273804,137.007459,Asia,Eastern Asia
1480,Kasukabe,Japan,35.9757957,139.752019,Asia,Eastern Asia
1481,Kasur,Pakistan,31.1175143,74.4478314,Asia,Southern Asia
1482,Kathmandu,Nepal,27.708317,85.3205817,Asia,Southern Asia
1483,Katihar,India,25.5504758,87.5941468,Asia,Southern Asia
1484,Katowice,Poland,50.2598987,19.0215852,Europe,Eastern Europe
1485,Katsina,Nigeria,12.5630825,7.6207063,Africa,Western Africa
1486,Katumba,Tanzania,-9.2218759,33.6390799,Africa,Eastern Africa
1487,Kaunas,Lithuania,54.8982139,23.9044817,Europe,Northern Europe
1488,Kawagoe,Japan,35.9251145,139.4856927,Asia,Eastern Asia
1489,Kawaguchi,Japan,35.8078228,139.7241054,Asia,Eastern Asia
1490,Kawanishi,Japan,34.8699135,135.4147005,Asia,Eastern Asia
1491,Kawasaki,Japan,35.5305307,139.7028012,Asia,Eastern Asia
1492,Kayseri,Turkey,38.6582232,35.5546374,Asia,Western Asia
1493,Kazan,Russia,55.7823547,49.1242266,Europe,Eastern Europe
1494,Kebumen,Indonesia,-7.6686894,109.6519465,Asia,South-Eastern Asia
1495,Kecskemét,Hungary,46.9073883,19.6917206,Europe,Eastern Europe
1496,Kediri,Indonesia,-7.8111057,112.0046051,Asia,South-Eastern Asia
1497,Kedungwuni,Indonesia,-6.9624914,109.6437468,Asia,South-Eastern Asia
1498,Keelung,Taiwan,25.1317232,121.744652,Asia,Eastern Asia
1499,Kelowna,Canada,49.8879177,-119.495902,Americas,Northern America
1500,Kemang,Indonesia,-3.3949445,104.361537,Asia,South-Eastern Asia
1501,Kemerovo,Russia,55.3550907,86.0871213,Europe,Eastern Europe
1502,Kendari,Indonesia,-3.9918068,122.5180066,Asia,South-Eastern Asia
1503,Kenitra,Morocco,34.26457,-6.570169,Africa,Northern Africa
1504,Kerch,Ukraine,45.3617542,36.4324618,Europe,Eastern Europe
1505,Kerman,Iran,29.571858,57.301047,Asia,Southern Asia
1506,Kermanshah,Iran,34.3789744,46.7010122,Asia,Southern Asia
1507,Khabarovsk,Russia,51.6312684,136.121524,Europe,Eastern Europe
1508,Khairpur,Pakistan,27.5268953,68.7593983,Asia,Southern Asia
1509,Khammam,India,17.2465351,80.1500326,Asia,Southern Asia
1510,Khandwa,India,21.8203752,76.3555424,Asia,Southern Asia
1511,Khanewal,Pakistan,30.3022528,71.9278916,Asia,Southern Asia
1512,Khanna,India,25.5656914,80.0634887,Asia,Southern Asia
1513,Khanpur,Pakistan,28.6477403,70.656008,Asia,Southern Asia
1514,Kharagpur,India,25.1331731,86.5250404,Asia,Southern Asia
1515,Khardaha,India,22.7156992,88.381582,Asia,Southern Asia
1516,Khartoum,Sudan,15.5635972,32.5349123,Africa,Northern Africa
1517,Kherson,Ukraine,46.5421715,33.4079326,Europe,Eastern Europe
1518,Khimki,Russia,55.8917293,37.4396994,Europe,Eastern Europe
1519,Khlong Luang,Thailand,14.0650298,100.6454621,Asia,South-Eastern Asia
1520,Khomeynishahr,Iran,32.6938201,51.5254892,Asia,Southern Asia
1521,Khon Kaen,Thailand,16.6022387,102.6352933,Asia,South-Eastern Asia
1522,Khorramabad,Iran,33.4842109,48.3538276,Asia,Southern Asia
1523,Khorramshahr,Iran,30.4333105,48.1779858,Asia,Southern Asia
1524,Khoy,Iran,38.5504343,44.95354,Asia,Southern Asia
1525,Khujand,Tajikistan,40.2844189,69.6191669,Asia,Central Asia
1526,Khulna,Bangladesh,22.9372087,89.2852741,Asia,Southern Asia
1527,Khurja,India,28.2059068,77.8757144,Asia,Southern Asia
1528,Khushab,Pakistan,32.2903666,72.3515792,Asia,Southern Asia
1529,Khuzdar,Pakistan,27.8000135,66.6166537,Asia,Southern Asia
1530,Kiel,Germany,54.3227085,10.135555,Europe,Western Europe
1531,Kielce,Poland,50.8540285,20.6099157,Europe,Eastern Europe
1532,Kiev,Ukraine,50.4500336,30.5241361,Europe,Eastern Europe
1533,Kigali,Rwanda,-1.950851,30.061507,Africa,Eastern Africa
1534,Kigoma,Tanzania,-4.5126571,30.0050533,Africa,Eastern Africa
1535,Kikwit,Congo (Democratic Republic Of The),-5.03577,18.78563,Africa,Middle Africa
1536,Killeen,United States,31.1171441,-97.727796,Americas,Northern America
1537,Kimberley,South Africa,-28.7383012,24.7642251,Africa,Southern Africa
1538,Kindia,Guinea,10.1154374,-13.1916883,Africa,Western Africa
1539,Kindu,Congo (Democratic Republic Of The),-2.94373,25.92237,Africa,Middle Africa
1540,Kingston,Canada,44.230687,-76.481323,Americas,Northern America
1541,Kingston Upon Hull,United Kingdom,53.7435722,-0.3394758,Europe,Northern Europe
1542,Kinshasa,Congo (Democratic Republic Of The),-4.32758,15.31357,Africa,Middle Africa
1543,Kirkuk,Iraq,35.4719308,44.3953896,Asia,Western Asia
1544,Kirov,Russia,58.6035661,49.6666241,Europe,Eastern Europe
1545,Kirovohrad,Ukraine,48.3725226,31.7834817,Europe,Eastern Europe
1546,Kiryu,Japan,36.4055296,139.3310209,Asia,Eastern Asia
