,City,Country,Latitude,Longitude
400,Bohicon,Benin,7.1816331,2.0695683
401,Bojnurd,Iran,37.4759752,57.3319881
402,Bokaro,India,23.6991279,85.9910689
403,Boksburg,South Africa,-26.2124639,28.2617471
404,Bologna,Italy,44.4938203,11.3426327
405,Bolton,United Kingdom,53.5782863,-2.4300367
406,Boma,Congo (Democratic Republic Of The),4.08979,25.90532
407,Bombay,India,19.0815772,72.8866275
408,Bonn,Germany,50.735851,7.10066
409,Bontang,Indonesia,0.1236548,117.471708
410,Bordeaux,France,44.841225,-0.5800364
411,Borujerd,Iran,33.8943281,48.7560936
412,Boshan,China,36.494716,117.8567023
413,Boston,United States,42.3554334,-71.060511
414,Botad,India,22.1686,71.6685
415,Botosani,Romania,47.8528263,26.759334
416,Botshabelo,South Africa,-29.232412,26.733255
417,Bottrop,Germany,51.521581,6.929204
418,Botucatu,Brazil,-22.8879628,-48.4410712
419,Bouaké,Côte D'Ivoire,7.6906058,-5.0298408
420,Boulogne Billancourt,France,48.8356649,2.240206
421,Bournemouth,United Kingdom,50.7201514,-1.8799118
422,Bozhou,China,33.8579594,115.772453
423,Bradford,United Kingdom,53.7944229,-1.7519186
424,Braga,Portugal,41.5510583,-8.4280045
425,Bragança Paulista,Brazil,-22.9520235,-46.5418586
426,Brahmapur,India,19.2999041,84.8071371
427,Braila,Romania,45.2716092,27.9742932
428,Brakpan,South Africa,-26.235278,28.37
429,Brasov,Romania,45.6525105,25.6105654
430,Brasília,Brazil,-10.3333333,-53.2
431,Bratislava,Slovakia,48.1516988,17.1093063
432,Bratsk,Russia,56.1517085,101.6334907
433,Brazzaville,Congo,-4.2694407,15.2712256
434,Brebes,Indonesia,-7.0520711,108.888136
435,Breda,Netherlands,51.5887845,4.7760237
436,Bremen,Germany,53.0758196,8.8071646
437,Bremerhaven,Germany,53.5505392,8.5851945
438,Brescia,Italy,45.7795804,10.425873
439,Brest,Belarus,52.093751,23.6851851
440,Bridgeport,United States,41.1670412,-73.2048348
441,Brighton,United Kingdom,50.8214626,-0.1400561
442,Brikama,Gambia,13.258513,-16.4997039
443,Brisbane,Australia,-27.4689682,153.0234991
444,Bristol,United Kingdom,51.4538022,-2.5972985
445,Brits,South Africa,-25.6297222,27.7841667
446,Brno,Czech Republic,49.1922443,16.6113382
447,Brownsville,United States,25.9015688,-97.4984005
448,Brugge,Belgium,51.2085526,3.226772
449,Brunswick,Germany,52.2646577,10.5236066
450,Brussels,Belgium,50.8550018,4.3512334
451,Bryansk,Russia,53.2423778,34.3668288
452,Bucaramanga,Colombia,7.1255169,-73.1182624
453,Bucharest,Romania,44.4361414,26.1027202
454,Budapest,Hungary,47.4978918,19.0401609
455,Budaun,India,28.0174669,79.1177591
456,Buenaventura,Colombia,3.8881929,-77.0738324
457,Buffalo,United States,42.8867166,-78.8783922
458,Buga,Colombia,3.9000578,-76.302013
459,Bugama,Nigeria,4.7340705,6.863451
460,Buhe,China,30.287567,112.229788
461,Bujumbura,Burundi,-3.3638125,29.3675028
462,Bukan,Iran,36.5215096,46.2111837
463,Bukavu,Congo (Democratic Republic Of The),-2.4982396,28.8549055
464,Bukit Mertajam,Malaysia,5.364244,100.4609767
465,Bulandshahr,India,28.416667,77.833333
466,Bulaon,Philippines,15.0864351,120.6663126
467,Bulawayo,Zimbabwe,-20.1053948,28.5426856
468,Buon Me Thuot,Vietnam,12.6796827,108.0447368
469,Buraydah,Saudi Arabia,26.331667,43.971667
470,Burbank,United States,34.1812089,-118.307201
471,Burewala,Pakistan,30.1588005,72.6796973
472,Burgas,Bulgaria,42.444553,27.2082645
473,Burgos,Spain,42.343926,-3.696977
474,Burhanpur,India,26.2697215,82.9944254
475,Bursa,Turkey,40.182737,29.0675481
476,Bushehr,Iran,28.8936645,51.3204877
477,Butembo,Congo (Democratic Republic Of The),0.14164,29.29117
478,Butterworth,Malaysia,5.3933618,100.366572
479,Butuan,Philippines,8.9483324,125.5369442
480,Buzau,Romania,45.2692581,26.7748173
481,Bydgoszcz,Poland,53.1219648,18.0002529
482,Bytom,Poland,50.3657432,18.8715325
483,Bénin,Nigeria,6.3330586,5.6221058
484,Cabanatuan,Philippines,15.4905045,120.9684264
485,Cabimas,Venezuela,10.395075,-71.4414049
486,Cabo Frio,Brazil,-22.8804369,-42.0189227
487,Cabudare,Venezuela,10.0260507,-69.2436557
488,Cachoeirinha,Brazil,-29.9493353,-51.0898927
489,Cachoeiro De Itapemirim,Brazil,-20.848084,-41.11129
490,Cadiz,Philippines,10.956652,123.3057034
491,Caen,France,49.1813403,-0.3635615
492,Cagayan De Oro,Philippines,8.4756417,124.6421532
493,Cagliari,Italy,39.2171994,9.113311
494,Cagua,Venezuela,10.1796632,-67.4606765
495,Cainta,Philippines,14.5780161,121.1163072
496,Cairns,Australia,-16.9206657,145.7721854
497,Cairo,Egypt,30.0443879,31.2357257
498,Cajamarca,Peru,-6.25,-78.833333
499,Calabar,Nigeria,4.9795999,8.3373597
500,Calabozo,Venezuela,8.9179829,-67.4173328
501,Calama,Chile,-22.4623917,-68.9272181
502,Calamba,Philippines,14.2060217,121.1556496
503,Calcutta,India,22.5726459,88.3638953
504,Calgary,Canada,51.0456064,-114.057541
505,Cali,Colombia,3.4520339,-76.5329352
506,Cam Pha,Vietnam,21.004432,107.278029
507,Cam Ranh,Vietnam,11.9166696,109.14861
508,Camagüey,Cuba,21.3791765,-77.9183681
509,Camaragibe,Brazil,-8.0213832,-34.9810768
510,Camaçari,Brazil,-12.6998188,-38.3260762
511,Cambridge,United Kingdom,52.2055314,0.1186637
512,Campeche,Mexico,19.330194,-89.9435138
513,Campina Grande,Brazil,-7.2246743,-35.8771292
514,Campinas,Brazil,-22.9056391,-47.059564
515,Campo Grande,Brazil,-20.4640173,-54.6162947
516,Campos,Brazil,-21.7546,-41.3242
517,Can Tho,Vietnam,10.0364216,105.7875219
518,Canberra,Australia,-35.2975906,149.1012676
519,Cancún,Mexico,21.1617854,-86.8510468
520,Cangzhou,China,38.3042796,116.8511597
521,Canoas,Brazil,-29.9216045,-51.1799525
522,Cap Haïtien,Haiti,19.7595236,-72.2008068
523,Cape Coast,Ghana,5.107467,-1.2430793
524,Cape Coral,United States,26.6059432,-81.9806771
525,Cape Town,South Africa,-33.928992,18.417396
526,Capiatá,Paraguay,-25.3548171,-57.4427315
527,Caracas,Venezuela,10.5060934,-66.9146008
528,Carapicuíba,Brazil,-23.5234673,-46.8406808
529,Cardiff,United Kingdom,51.4816546,-3.1791934
530,Cariacica,Brazil,-20.263202,-40.416549
531,Carmen,Mexico,18.4528233,-91.4128517
532,Carolina,Puerto Rico,18.3808516,-65.9570244
533,Carrefour,Haiti,18.5345373,-72.4092495
534,Carrollton,United States,32.9537349,-96.8902816
535,Cartagena,Colombia,10.4266746,-75.5443419
536,Cartago,Colombia,4.7465494,-75.9121234
537,Caruaru,Brazil,-8.2829702,-35.9722852
538,Cary,United States,35.7882893,-78.7812081
539,Carúpano,Venezuela,10.6493808,-63.2542332
540,Casablanca,Morocco,33.5945144,-7.6200284
541,Cascavel,Brazil,-24.9554996,-53.4560544
542,Castanhal,Brazil,-1.2927031,-47.9223903
543,Catamarca,Argentina,-27.1910825,-67.105374
544,Catanduva,Brazil,-21.1331035,-48.9712817
545,Catania,Italy,37.5023612,15.0873718
546,Catia La Mar,Venezuela,10.5990138,-67.0292735
547,Caucaia,Brazil,-3.7300563,-38.6593082
548,Cavite,Philippines,14.2554073,120.8671503
549,Caxias,Brazil,-29.1685045,-51.1796385
550,Caxias Do Sul,Brazil,-29.1685045,-51.1796385
551,Cebu,Philippines,10.2931062,123.9020773
552,Cedar Rapids,United States,41.9758872,-91.6704053
553,Celaya,Mexico,20.521788,-100.8140458
554,Chakwal,Pakistan,32.932827,72.8629763
555,Chalco,Mexico,19.2382585,-98.8188838
556,Champdani,India,22.79778,88.36583
557,Chandannagar,India,22.8639237,88.3703496
558,Chandausi,India,28.449104,78.7828513
559,Chandigarh,India,30.7298439,76.7841457
560,Chandler,United States,33.3062031,-111.8411851
561,Chandpur,Bangladesh,23.2252149,90.7111818
562,Chandrapur,India,20.0967555,79.5045475
563,Changchun,China,43.8844201,125.3180998
564,Changde,China,29.034552,111.6928724
565,Changji,China,44.0096792,87.306069
566,Changzhou,China,31.8122623,119.9691539
567,Chaohu,China,31.6261473,117.8854283
568,Chaoyang,China,41.5754767,120.4390738
569,Chaozhou,China,23.656593,116.6204223
570,Chapecó,Brazil,-27.0922364,-52.6166878
571,Charallave,Venezuela,10.2456598,-66.8586608
572,Charleroi,Belgium,50.4116459,4.4445264
573,Charleston,United States,32.7884363,-79.9399309
574,Charlotte,United States,35.2272086,-80.8430827
575,Chas,India,23.5975274,86.1679581
576,Chattanooga,United States,35.0457219,-85.3094883
577,Chavakachcheri,Sri Lanka,9.6579014,80.1643076
578,Cheboksary,Russia,56.1307195,47.2449597
579,Chelmsford,United Kingdom,51.7345329,0.4730532
580,Cheltenham,United Kingdom,51.8995685,-2.0711559
581,Chelyabinsk,Russia,55.1598408,61.4025547
582,Chemnitz,Germany,50.8322608,12.9252977
583,Chengde,China,40.9507147,117.9567031
584,Chengdu,China,30.6598628,104.0633717
585,Chenghai,China,23.4694075,116.7515585
586,Chenzhou,China,25.7733598,113.0094337
587,Cherepovets,Russia,59.128696,37.916389
588,Cherkasy,Ukraine,49.1460165,31.2271744
589,Cherkessk,Russia,44.225383,42.0681966
590,Chernihiv,Ukraine,51.272593,31.7417235
591,Chernivtsi,Ukraine,48.2864702,25.9376532
592,Chesapeake,United States,36.7183708,-76.2466798
593,Chetumal,Mexico,18.5145865,-88.3005528
594,Chhapra,India,25.7784105,84.7514507
595,Chhatarpur,India,24.75,79.75
596,Chhindwara,India,22.116667,78.8
597,Chiang Mai,Thailand,18.7882778,98.9858802
598,Chicago,United States,41.8755616,-87.6244212
599,Chiclayo,Peru,-6.7716146,-79.8387175
600,Chifeng,China,42.2811677,118.9426564
601,Chigasaki,Japan,35.329479,139.405371
602,Chihuahua,Mexico,28.5000001,-106.0000001
603,Chikmagalur,India,13.318014,75.7738743
604,Chillan,Chile,-36.6066616,-72.1033194
605,Chilpancingo,Mexico,17.5542149,-99.5048416
606,Chimalhuacán,Mexico,19.4339293,-98.9580149
607,Chimbote,Peru,-9.0744966,-78.593609
608,Chimoio,Mozambique,-19.1437458,33.4780059
609,Chinandega,Nicaragua,12.8890816,-86.9577726
610,Chincha Alta,Peru,-13.417488,-76.1325726
611,Chingola,Zambia,-12.5474926,27.8600422
612,Chiniot,Pakistan,31.7223135,72.9802538
613,Chishtian Mandi,Pakistan,29.7978637,72.8594291
614,Chisinau,Moldova,47.0245117,28.8322923
615,Chita,Russia,52.033409,113.500893
616,Chitradurga,India,14.2266443,76.4005122
617,Chittaurgarh,India,24.5,74.5
618,Chitungwiza,Zimbabwe,-18.0143462,31.0726737
619,Chizhou,China,30.6671088,117.4859885
620,Chofu,Japan,35.660036,139.554815
621,Choloma,Honduras,15.6127426,-87.950694
622,Chon Buri,Thailand,13.1857117,101.1210777
623,Chongqing,China,29.5656729,106.5479189
624,Chorzow,Poland,50.2885563,18.9704425
625,Chosica,Peru,-11.9367735,-76.6969111
626,Christchurch,New Zealand,-43.530955,172.6366455
627,Chula Vista,United States,32.6400541,-117.0841955
628,Chuncheng,China,43.8765528,125.2646364
629,Chungho,Taiwan,24.999397,121.49898
630,Chupei,Taiwan,24.8357467,121.0030878
631,Churu,India,28.5,74.5
632,Chuzhou,China,32.2545901,118.3280486
633,Ciamis,Indonesia,-7.3131593,108.4048938
634,Ciampea,Indonesia,-6.578945,106.7019724
635,Cianjur,Indonesia,-7.0542441,107.0691428
636,Cibadak,Indonesia,-6.9226316,107.5952567
637,Cibinong,Indonesia,-6.4824358,106.8383271
638,Cibitung,Indonesia,-6.2618811,107.0836549
639,Cicalengka,Indonesia,-6.9815914,107.8327237
640,Ciego De Ávila,Cuba,21.8419762,-78.7601053
641,Cienfuegos,Cuba,22.1459864,-80.4530775
642,Cikampek,Indonesia,-6.4064976,107.4588164
643,Cikarang,Indonesia,-6.2587148,107.145742
644,Cikupa,Indonesia,-6.2179975,106.5170845
645,Cilegon,Indonesia,-6.017389,106.0537688
646,Cileungsi,Indonesia,-6.3982206,106.9818924
647,Cileunyi,Indonesia,-6.9454616,107.7466656
648,Cimahi,Indonesia,-6.8731527,107.5423099
649,Cincinnati,United States,39.1014537,-84.5124602
650,Ciomas,Indonesia,-6.5894574,106.7666223
651,Ciparay,Indonesia,-7.2696909,106.6187283
652,Ciputat,Indonesia,-6.3110779,106.7184109
653,Cirebon,Indonesia,-6.7137044,108.5608483
654,Cisaat,Indonesia,-7.0838483,107.8970122
655,Cisarua,Indonesia,-6.7084122,106.962275
656,Citeureup,Indonesia,-6.546294,105.6999768
657,Ciudad Bolívar,Venezuela,8.1028532,-63.5469562
658,Ciudad Guayana,Venezuela,8.3223763,-62.6896622
659,Ciudad Valles,Mexico,21.9916551,-99.0102967
660,Clarksville,United States,36.5277607,-87.3588703
661,Clearwater,United States,27.9658533,-82.8001026
662,Clermont Ferrand,France,45.7774551,3.0819427
663,Cleveland,United States,41.4996574,-81.6936772
664,Cluj Napoca,Romania,46.769379,23.5899542
665,Coacalco,Mexico,19.6359452,-99.0948573
666,Coatzacoalcos,Mexico,18.1396787,-94.4501731
667,Cochabamba,Bolivia,-17.4012458,-66.1675681
668,Coimbra,Portugal,40.2111931,-8.4294632
669,Colatina,Brazil,-19.5346732,-40.6287836
670,Colchester,United Kingdom,51.8896903,0.8994651
671,Colima,Mexico,19.166667,-104.0
672,Cologne,Germany,50.938361,6.959974
673,Colombo,Brazil,-25.2925439,-49.2243472
674,Colorado Springs,United States,38.8339578,-104.825348
675,Columbia,United States,34.0374165,-80.8224045
676,Columbus,United States,39.9622601,-83.0007065
677,Comodoro Rivadavia,Argentina,-45.8632024,-67.4752615
678,Conakry,Guinea,9.5170602,-13.6998434
679,Concepcion,Chile,-36.8270795,-73.0502399
680,Concord,United States,43.207178,-71.537476
681,Concordia,Argentina,-31.3972539,-58.0173305
682,Conselheiro Lafaiete,Brazil,-20.6596107,-43.785743
683,Constanta,Romania,44.1767161,28.6507598
684,Constantine,Algeria,36.3641642,6.6084281
685,Contagem,Brazil,-19.9132749,-44.0840953
686,Copenhagen,Denmark,55.6867243,12.5700724
687,Copiapo,Chile,-27.3664685,-70.3322753
688,Coquimbo,Chile,-30.7546652,-70.9005536
689,Coral Springs,United States,26.271192,-80.2706044
690,Cordoba,Argentina,-31.4166867,-64.1834193
691,Cork,Ireland,51.897077,-8.4654674
692,Coro,Venezuela,11.4055796,-69.6679115
693,Corona,United States,33.8752945,-117.5664449
694,Coronel Fabriciano,Brazil,-19.5200067,-42.6282686
695,Corpus Christi,United States,27.7635302,-97.4033191
696,Corrientes,Argentina,-28.991123,-57.8125606
697,Costa Mesa,United States,33.6633386,-117.903317
698,Cotabato,Philippines,7.27,124.86
699,Cotia,Brazil,-23.603889,-46.918889
700,Cotonou,Benin,6.3676953,2.4252507
701,Cottbus,Germany,51.7567447,14.3357307
702,Coventry,United Kingdom,52.4081812,-1.510477
703,Cracow,Poland,50.0606452,19.9370985
704,Craiova,Romania,44.3190159,23.7965614
705,Crawley,United Kingdom,51.1103444,-0.1801094
706,Criciúma,Brazil,-28.6789941,-49.3695627
707,Cuautitlán Izcalli,Mexico,19.6531356,-99.2145002
708,Cuautla,Mexico,20.2036094,-104.4858267
709,Cubatão,Brazil,-23.8857982,-46.4241869
710,Cuddapah,India,14.4956602,78.8349278
711,Cuenca,Ecuador,-2.8974072,-79.0041726
712,Cuernavaca,Mexico,18.9218274,-99.2342282
713,Cuiabá,Brazil,-15.5986686,-56.0991301
714,Culiacán,Mexico,24.7978965,-107.393395
715,Cumaná,Venezuela,10.4495706,-64.1578046
716,Curico,Chile,-34.985368,-71.2393705
717,Curitiba,Brazil,-25.4295963,-49.2712724
718,Curug,Indonesia,-6.2371399,106.5670201
719,Cusco,Peru,-13.5170887,-71.9785356
720,Czestochowa,Poland,50.8089997,19.1244089
721,Cà Mau,Vietnam,9.0180177,105.0869724
722,Córdoba,Mexico,18.8944704,-96.9352891
723,Cúa,Venezuela,10.1653676,-66.8865117
724,Cúcuta,Colombia,7.8971458,-72.5080387
725,Da Lat,Vietnam,11.9402416,108.4375758
726,Da Nang,Vietnam,16.068,108.212
727,Daan,China,45.5044225,124.2855828
728,Dabrowa Gornicza,Poland,50.3308692,19.2078918
729,Dadiangas,Philippines,6.112331,125.1717145
730,Dadu,Pakistan,26.7274836,67.7804974
731,Dagupan,Philippines,16.043021,120.3337627
732,Dahuk,Iraq,37.042257,43.0953954
733,Daito,Japan,34.710679,135.635478
734,Dakar,Senegal,14.693425,-17.447938
735,Dali,China,25.6074778,100.2651597
736,Dalian,China,38.9181714,121.6282945
737,Daliang,China,39.542285,117.0889186
738,Dallas,United States,32.7762719,-96.7968559
739,Daloa,Côte D'Ivoire,6.8766904,-6.4516096
740,Damascus,Syria,33.5130695,36.3095814
741,Damaturu,Nigeria,11.747,11.9608
742,Damoh,India,23.75,79.583333
743,Dandong,China,40.128668,124.3863404
744,Danshui,China,33.2091312,111.6718608
745,Dar Es Salaam,Tanzania,-6.8160837,39.2803583
746,Darbhanga,India,26.156999,85.8995065
747,Darjiling,India,26.75,88.25
748,Darmstadt,Germany,49.872775,8.651177
749,Daska,Pakistan,32.3323692,74.352516
750,Dasmariñas,Philippines,14.3270819,120.9370871
751,Dasoguz,Turkmenistan,41.3862117,58.5586047
752,Datong,China,40.0919817,113.2951122
753,Daugavpils,Latvia,55.8712267,26.5159337
754,Davao,Philippines,7.0648306,125.6080623
755,Dawei,Burma,14.0797232,98.1990191
756,Dawukou,China,39.0186505,106.3620755
757,Daxian,China,31.1989633,107.5078704
758,Dayton,United States,39.7589478,-84.1916069
759,Debre Zeyit,Ethiopia,10.5854867,35.7919701
760,Debrecen,Hungary,47.531399,21.6259782
761,Dehra Dun,India,30.3255646,78.0436813
762,Dehri,India,24.9258862,84.1728723
763,Dehui,China,44.5350141,125.6954363
764,Dekernes,Egypt,31.0875714,31.5949593
765,Delhi,India,28.6273928,77.1716954
766,Delicias,Mexico,28.1909814,-105.469426
767,Delmas,Haiti,18.5518464,-72.2920071
768,Denizli,Turkey,37.7833152,29.0844832
769,Denpasar,Indonesia,-8.6524973,115.2191175
770,Denton,United States,33.1838787,-97.1413417
771,Denver,United States,39.7392364,-104.984862
772,Deoria,India,26.666667,83.75
773,Depok,Indonesia,-6.40719,106.8158371
774,Dera Ghazi Khan,Pakistan,30.0321374,70.6401114
775,Dera Ismail Khan,Pakistan,31.827527,70.9090919
776,Derbent,Russia,42.057858,48.2887648
777,Derby,United Kingdom,52.9212617,-1.4761491
778,Des Moines,United States,41.5910323,-93.6046655
779,Dese,Ethiopia,11.122604,39.634982
780,Detroit,United States,42.3315509,-83.0466403
781,Dewas,India,23.0,76.166667
782,Deyang,China,31.1244028,104.39013
783,Dezful,Iran,32.3780257,48.4032064
784,Dezhou,China,37.4363704,116.3534091
785,Dhaka,Bangladesh,23.7644025,90.389015
786,Dhanbad,India,23.7952809,86.4309638
787,Dharan,Nepal,26.7953984,87.2770255
788,Dharmavaram,India,14.4223472,77.7200689
789,Dhaulpur,India,26.7010642,77.896749
790,Dhule,India,21.1305215,74.4900614
791,Diadema,Brazil,-23.6866428,-46.6246935
792,Dibrugarh,India,27.4844597,94.9019447
793,Didao,China,45.3466325,130.8367458
794,Digos,Philippines,6.7443797,125.3556265
795,Dijon,France,47.3215806,5.0414701
796,Dimapur,India,25.911744,93.721703
797,Dimitrovgrad,Russia,54.2188995,49.6038982
798,Dinajpur,Bangladesh,25.6260712,88.6346228
799,Dindigul,India,10.3303299,78.0673979
